[{"type":"Feature","geometry":{"type":"Point","coordinates":[-97.58975,30.242793]},"properties":{"Type":"Precinct 101","Name":"Dailey Middle School","Street":"14000 Westall Street","City":"Austin","State":"TX","Zip":"78725","Formatted":"Dailey Middle School\n14000 Westall Street\nAustin, TX 78725","Schedule":"Tue, Nov 5: 7am - 7pm","Notes":"Combined precincts 101, 101, 114, 115, 116, 119, 138"}},{"type":"Feature","geometry":{"type":"Point","coordinates":[-97.66011,30.388295]},"properties":{"Type":"Precinct 102","Name":"Copperfield Elementary School","Street":"12135 Thompkins Drive","City":"Austin","State":"TX","Zip":"78753","Formatted":"Copperfield Elementary School\n12135 Thompkins Drive\nAustin, TX 78753","Schedule":"Tue, Nov 5: 7am - 7pm","Notes":null}},{"type":"Feature","geometry":{"type":"Point","coordinates":[-97.6692,30.37274]},"properties":{"Type":"Precinct 103","Name":"Graham Elementary School","Street":"11211 Tom Adams Drive","City":"Austin","State":"TX","Zip":"78753","Formatted":"Graham Elementary School\n11211 Tom Adams Drive\nAustin, TX 78753","Schedule":"Tue, Nov 5: 7am - 7pm","Notes":"Combined precincts 103, 103, 108"}},{"type":"Feature","geometry":{"type":"Point","coordinates":[-97.668827,30.369667]},"properties":{"Type":"Precinct 104","Name":"Cedar View Rehabilitation","Street":"11020 Dessau Road","City":"Austin","State":"TX","Zip":"78754","Formatted":"Cedar View Rehabilitation\n11020 Dessau Road\nAustin, TX 78754","Schedule":"Tue, Nov 5: 7am - 7pm","Notes":null}},{"type":"Feature","geometry":{"type":"Point","coordinates":[-97.573528,30.344621]},"properties":{"Type":"Precinct 105","Name":"Manor ISD Administration Building","Street":"10335 Hwy 290 East","City":"Manor","State":"TX","Zip":"78653","Formatted":"Manor ISD Administration Building\n10335 Hwy 290 East\nManor, TX 78653","Schedule":"Tue, Nov 5: 7am - 7pm","Notes":null}},{"type":"Feature","geometry":{"type":"Point","coordinates":[-97.407671,30.360388]},"properties":{"Type":"Precinct 106","Name":"Neidig Elementary School","Street":"13700 County Line Road","City":"Elgin","State":"TX","Zip":"78621","Formatted":"Neidig Elementary School\n13700 County Line Road\nElgin, TX 78621","Schedule":"Tue, Nov 5: 7am - 7pm","Notes":null}},{"type":"Feature","geometry":{"type":"Point","coordinates":[-97.486767,30.405546]},"properties":{"Type":"Precinct 107","Name":"New Sweden Lutheran Church","Street":"12809 New Sweden Church Road","City":"Manor","State":"TX","Zip":"78653","Formatted":"New Sweden Lutheran Church\n12809 New Sweden Church Road\nManor, TX 78653","Schedule":"Tue, Nov 5: 7am - 7pm","Notes":null}},{"type":"Feature","geometry":{"type":"Point","coordinates":[-97.6692,30.37274]},"properties":{"Type":"Precinct 108","Name":"Graham Elementary School","Street":"11211 Tom Adams Drive","City":"Austin","State":"TX","Zip":"78753","Formatted":"Graham Elementary School\n11211 Tom Adams Drive\nAustin, TX 78753","Schedule":"Tue, Nov 5: 7am - 7pm","Notes":"Combined precincts 103, 108, 108"}},{"type":"Feature","geometry":{"type":"Point","coordinates":[-97.691717,30.414372]},"properties":{"Type":"Precinct 109","Name":"Parmer Lane Elementary School","Street":"1806 Parmer Lane","City":"Austin","State":"TX","Zip":"78727","Formatted":"Parmer Lane Elementary School\n1806 Parmer Lane\nAustin, TX 78727","Schedule":"Tue, Nov 5: 7am - 7pm","Notes":"Combined precincts 109, 109, 111"}},{"type":"Feature","geometry":{"type":"Point","coordinates":[-97.618461,30.456036]},"properties":{"Type":"Precinct 110","Name":"Park Crest Middle School","Street":"1500 North Railroad Avenue","City":"Pflugerville","State":"TX","Zip":"78660","Formatted":"Park Crest Middle School\n1500 North Railroad Avenue\nPflugerville, TX 78660","Schedule":"Tue, Nov 5: 7am - 7pm","Notes":"Combined precincts 110, 110, 161"}},{"type":"Feature","geometry":{"type":"Point","coordinates":[-97.691717,30.414372]},"properties":{"Type":"Precinct 111","Name":"Parmer Lane Elementary School","Street":"1806 Parmer Lane","City":"Austin","State":"TX","Zip":"78727","Formatted":"Parmer Lane Elementary School\n1806 Parmer Lane\nAustin, TX 78727","Schedule":"Tue, Nov 5: 7am - 7pm","Notes":"Combined precincts 109, 111, 111"}},{"type":"Feature","geometry":{"type":"Point","coordinates":[-97.643749,30.401533]},"properties":{"Type":"Precinct 112","Name":"Dessau Elementary School","Street":"1501 Dessau Ridge Lane","City":"Austin","State":"TX","Zip":"78754","Formatted":"Dessau Elementary School\n1501 Dessau Ridge Lane\nAustin, TX 78754","Schedule":"Tue, Nov 5: 7am - 7pm","Notes":null}},{"type":"Feature","geometry":{"type":"Point","coordinates":[-97.639275,30.422273]},"properties":{"Type":"Precinct 113","Name":"Wieland Elementary School","Street":"900 Tudor House Road","City":"Pflugerville","State":"TX","Zip":"78660","Formatted":"Wieland Elementary School\n900 Tudor House Road\nPflugerville, TX 78660","Schedule":"Tue, Nov 5: 7am - 7pm","Notes":null}},{"type":"Feature","geometry":{"type":"Point","coordinates":[-97.58975,30.242793]},"properties":{"Type":"Precinct 114","Name":"Dailey Middle School","Street":"14000 Westall Street","City":"Austin","State":"TX","Zip":"78725","Formatted":"Dailey Middle School\n14000 Westall Street\nAustin, TX 78725","Schedule":"Tue, Nov 5: 7am - 7pm","Notes":"Combined precincts 101, 114, 114, 115, 116, 119, 138"}},{"type":"Feature","geometry":{"type":"Point","coordinates":[-97.58975,30.242793]},"properties":{"Type":"Precinct 115","Name":"Dailey Middle School","Street":"14000 Westall Street","City":"Austin","State":"TX","Zip":"78725","Formatted":"Dailey Middle School\n14000 Westall Street\nAustin, TX 78725","Schedule":"Tue, Nov 5: 7am - 7pm","Notes":"Combined precincts 101, 114, 115, 115, 116, 119, 138"}},{"type":"Feature","geometry":{"type":"Point","coordinates":[-97.58975,30.242793]},"properties":{"Type":"Precinct 116","Name":"Dailey Middle School","Street":"14000 Westall Street","City":"Austin","State":"TX","Zip":"78725","Formatted":"Dailey Middle School\n14000 Westall Street\nAustin, TX 78725","Schedule":"Tue, Nov 5: 7am - 7pm","Notes":"Combined precincts 101, 114, 115, 116, 116, 119, 138"}},{"type":"Feature","geometry":{"type":"Point","coordinates":[-97.63624,30.30028]},"properties":{"Type":"Precinct 117","Name":"Overton Elementary School","Street":"7201 Colony Loop Drive","City":"Austin","State":"TX","Zip":"78724","Formatted":"Overton Elementary School\n7201 Colony Loop Drive\nAustin, TX 78724","Schedule":"Tue, Nov 5: 7am - 7pm","Notes":"Combined precincts 117, 117, 120"}},{"type":"Feature","geometry":{"type":"Point","coordinates":[-97.692964,30.316198]},"properties":{"Type":"Precinct 118","Name":"Memorial United Methodist Church","Street":"6100 Berkman Drive","City":"Austin","State":"TX","Zip":"78723","Formatted":"Memorial United Methodist Church\n6100 Berkman Drive\nAustin, TX 78723","Schedule":"Tue, Nov 5: 7am - 7pm","Notes":"Combined precincts 118, 118, 130"}},{"type":"Feature","geometry":{"type":"Point","coordinates":[-97.58975,30.242793]},"properties":{"Type":"Precinct 119","Name":"Dailey Middle School","Street":"14000 Westall Street","City":"Austin","State":"TX","Zip":"78725","Formatted":"Dailey Middle School\n14000 Westall Street\nAustin, TX 78725","Schedule":"Tue, Nov 5: 7am - 7pm","Notes":"Combined precincts 101, 114, 115, 116, 119, 119, 138"}},{"type":"Feature","geometry":{"type":"Point","coordinates":[-97.63624,30.30028]},"properties":{"Type":"Precinct 120","Name":"Overton Elementary School","Street":"7201 Colony Loop Drive","City":"Austin","State":"TX","Zip":"78724","Formatted":"Overton Elementary School\n7201 Colony Loop Drive\nAustin, TX 78724","Schedule":"Tue, Nov 5: 7am - 7pm","Notes":"Combined precincts 117, 120, 120"}},{"type":"Feature","geometry":{"type":"Point","coordinates":[-97.65676,30.3131]},"properties":{"Type":"Precinct 121","Name":"LBJ High School","Street":"7309 Lazy Creek Drive","City":"Austin","State":"TX","Zip":"78724","Formatted":"LBJ High School\n7309 Lazy Creek Drive\nAustin, TX 78724","Schedule":"Tue, Nov 5: 7am - 7pm","Notes":"Combined precincts 121, 121, 128, 131, 134"}},{"type":"Feature","geometry":{"type":"Point","coordinates":[-97.662262,30.292079]},"properties":{"Type":"Precinct 122","Name":"YMCA East Community Branch","Street":"5315 Ed Bluestein Boulevard","City":"Austin","State":"TX","Zip":"78723","Formatted":"YMCA East Community Branch\n5315 Ed Bluestein Boulevard\nAustin, TX 78723","Schedule":"Tue, Nov 5: 7am - 7pm","Notes":null}},{"type":"Feature","geometry":{"type":"Point","coordinates":[-97.586918,30.467253]},"properties":{"Type":"Precinct 123","Name":"Murchison Elementary School","Street":"2215 Kelly Lane","City":"Pflugerville","State":"TX","Zip":"78660","Formatted":"Murchison Elementary School\n2215 Kelly Lane\nPflugerville, TX 78660","Schedule":"Tue, Nov 5: 7am - 7pm","Notes":null}},{"type":"Feature","geometry":{"type":"Point","coordinates":[-97.72418,30.26968]},"properties":{"Type":"Precinct 124","Name":"Carver Library and Museum Complex","Street":"1161 Angelina Street","City":"Austin","State":"TX","Zip":"78702","Formatted":"Carver Library and Museum Complex\n1161 Angelina Street\nAustin, TX 78702","Schedule":"Tue, Nov 5: 7am - 7pm","Notes":null}},{"type":"Feature","geometry":{"type":"Point","coordinates":[-97.618289,30.351472]},"properties":{"Type":"Precinct 125","Name":"Bluebonnet Trail Elementary School","Street":"11316 Farmhaven Road","City":"Austin","State":"TX","Zip":"78754","Formatted":"Bluebonnet Trail Elementary School\n11316 Farmhaven Road\nAustin, TX 78754","Schedule":"Tue, Nov 5: 7am - 7pm","Notes":"Combined precincts 125, 125, 127, 154"}},{"type":"Feature","geometry":{"type":"Point","coordinates":[-97.717944,30.280091]},"properties":{"Type":"Precinct 126","Name":"David Chapel Portable","Street":"2211 East MLK Jr. Boulevard","City":"Austin","State":"TX","Zip":"78702","Formatted":"David Chapel Portable\n2211 East MLK Jr. Boulevard\nAustin, TX 78702","Schedule":"Tue, Nov 5: 7am - 7pm","Notes":null}},{"type":"Feature","geometry":{"type":"Point","coordinates":[-97.618289,30.351472]},"properties":{"Type":"Precinct 127","Name":"Bluebonnet Trail Elementary School","Street":"11316 Farmhaven Road","City":"Austin","State":"TX","Zip":"78754","Formatted":"Bluebonnet Trail Elementary School\n11316 Farmhaven Road\nAustin, TX 78754","Schedule":"Tue, Nov 5: 7am - 7pm","Notes":"Combined precincts 125, 127, 127, 154"}},{"type":"Feature","geometry":{"type":"Point","coordinates":[-97.65676,30.3131]},"properties":{"Type":"Precinct 128","Name":"LBJ High School","Street":"7309 Lazy Creek Drive","City":"Austin","State":"TX","Zip":"78724","Formatted":"LBJ High School\n7309 Lazy Creek Drive\nAustin, TX 78724","Schedule":"Tue, Nov 5: 7am - 7pm","Notes":"Combined precincts 121, 128, 128, 131, 134"}},{"type":"Feature","geometry":{"type":"Point","coordinates":[-97.686068,30.279507]},"properties":{"Type":"Precinct 129","Name":"Sims Elementary School","Street":"1203 Springdale Road","City":"Austin","State":"TX","Zip":"78721","Formatted":"Sims Elementary School\n1203 Springdale Road\nAustin, TX 78721","Schedule":"Tue, Nov 5: 7am - 7pm","Notes":null}},{"type":"Feature","geometry":{"type":"Point","coordinates":[-97.692964,30.316198]},"properties":{"Type":"Precinct 130","Name":"Memorial United Methodist Church","Street":"6100 Berkman Drive","City":"Austin","State":"TX","Zip":"78723","Formatted":"Memorial United Methodist Church\n6100 Berkman Drive\nAustin, TX 78723","Schedule":"Tue, Nov 5: 7am - 7pm","Notes":"Combined precincts 118, 130, 130"}},{"type":"Feature","geometry":{"type":"Point","coordinates":[-97.65676,30.3131]},"properties":{"Type":"Precinct 131","Name":"LBJ High School","Street":"7309 Lazy Creek Drive","City":"Austin","State":"TX","Zip":"78724","Formatted":"LBJ High School\n7309 Lazy Creek Drive\nAustin, TX 78724","Schedule":"Tue, Nov 5: 7am - 7pm","Notes":"Combined precincts 121, 128, 131, 131, 134"}},{"type":"Feature","geometry":{"type":"Point","coordinates":[-97.676922,30.30285]},"properties":{"Type":"Precinct 132","Name":"Pecan Springs Elementary School","Street":"3100 Rogge Lane","City":"Austin","State":"TX","Zip":"78723","Formatted":"Pecan Springs Elementary School\n3100 Rogge Lane\nAustin, TX 78723","Schedule":"Tue, Nov 5: 7am - 7pm","Notes":null}},{"type":"Feature","geometry":{"type":"Point","coordinates":[-97.69058,30.307318]},"properties":{"Type":"Precinct 133","Name":"Blanton Elementary School","Street":"5408 Westminster Drive","City":"Austin","State":"TX","Zip":"78723","Formatted":"Blanton Elementary School\n5408 Westminster Drive\nAustin, TX 78723","Schedule":"Tue, Nov 5: 7am - 7pm","Notes":null}},{"type":"Feature","geometry":{"type":"Point","coordinates":[-97.65676,30.3131]},"properties":{"Type":"Precinct 134","Name":"LBJ High School","Street":"7309 Lazy Creek Drive","City":"Austin","State":"TX","Zip":"78724","Formatted":"LBJ High School\n7309 Lazy Creek Drive\nAustin, TX 78724","Schedule":"Tue, Nov 5: 7am - 7pm","Notes":"Combined precincts 121, 128, 131, 134, 134"}},{"type":"Feature","geometry":{"type":"Point","coordinates":[-97.701137,30.315154]},"properties":{"Type":"Precinct 135","Name":"Messiah Lutheran Church","Street":"5701 Cameron Road","City":"Austin","State":"TX","Zip":"78723","Formatted":"Messiah Lutheran Church\n5701 Cameron Road\nAustin, TX 78723","Schedule":"Tue, Nov 5: 7am - 7pm","Notes":null}},{"type":"Feature","geometry":{"type":"Point","coordinates":[-97.620285,30.438009]},"properties":{"Type":"Precinct 136","Name":"Pfluger Hall","Street":"203B East Pecan Street","City":"Pflugerville","State":"TX","Zip":"78660","Formatted":"Pfluger Hall\n203B East Pecan Street\nPflugerville, TX 78660","Schedule":"Tue, Nov 5: 7am - 7pm","Notes":null}},{"type":"Feature","geometry":{"type":"Point","coordinates":[-97.562628,30.477194]},"properties":{"Type":"Precinct 137","Name":"Rowe Lane Elementary School","Street":"3112 Speidel Drive","City":"Pflugerville","State":"TX","Zip":"78660","Formatted":"Rowe Lane Elementary School\n3112 Speidel Drive\nPflugerville, TX 78660","Schedule":"Tue, Nov 5: 7am - 7pm","Notes":"Combined precincts 137, 137, 163"}},{"type":"Feature","geometry":{"type":"Point","coordinates":[-97.58975,30.242793]},"properties":{"Type":"Precinct 138","Name":"Dailey Middle School","Street":"14000 Westall Street","City":"Austin","State":"TX","Zip":"78725","Formatted":"Dailey Middle School\n14000 Westall Street\nAustin, TX 78725","Schedule":"Tue, Nov 5: 7am - 7pm","Notes":"Combined precincts 101, 114, 115, 116, 119, 138, 138"}},{"type":"Feature","geometry":{"type":"Point","coordinates":[-97.68208,30.35258]},"properties":{"Type":"Precinct 139","Name":"Gus Garcia Recreation Center","Street":"1201 East Rundberg Lane","City":"Austin","State":"TX","Zip":"78753","Formatted":"Gus Garcia Recreation Center\n1201 East Rundberg Lane\nAustin, TX 78753","Schedule":"Tue, Nov 5: 7am - 7pm","Notes":"Combined precincts 139, 139, 140, 141"}},{"type":"Feature","geometry":{"type":"Point","coordinates":[-97.68208,30.35258]},"properties":{"Type":"Precinct 140","Name":"Gus Garcia Recreation Center","Street":"1201 East Rundberg Lane","City":"Austin","State":"TX","Zip":"78753","Formatted":"Gus Garcia Recreation Center\n1201 East Rundberg Lane\nAustin, TX 78753","Schedule":"Tue, Nov 5: 7am - 7pm","Notes":"Combined precincts 139, 140, 140, 141"}},{"type":"Feature","geometry":{"type":"Point","coordinates":[-97.68208,30.35258]},"properties":{"Type":"Precinct 141","Name":"Gus Garcia Recreation Center","Street":"1201 East Rundberg Lane","City":"Austin","State":"TX","Zip":"78753","Formatted":"Gus Garcia Recreation Center\n1201 East Rundberg Lane\nAustin, TX 78753","Schedule":"Tue, Nov 5: 7am - 7pm","Notes":"Combined precincts 139, 140, 141, 141"}},{"type":"Feature","geometry":{"type":"Point","coordinates":[-97.713196,30.316062]},"properties":{"Type":"Precinct 142","Name":"Travis County Airport Blvd Offices","Street":"5501 Airport Boulevard","City":"Austin","State":"TX","Zip":"78751","Formatted":"Travis County Airport Blvd Offices\n5501 Airport Boulevard\nAustin, TX 78751","Schedule":"Tue, Nov 5: 7am - 7pm","Notes":null}},{"type":"Feature","geometry":{"type":"Point","coordinates":[-97.65221,30.44886]},"properties":{"Type":"Precinct 145","Name":"County Tax Office, Pflugerville","Street":"15822 Foothill Farms Loop","City":"Pflugerville","State":"TX","Zip":"78660","Formatted":"County Tax Office, Pflugerville\n15822 Foothill Farms Loop\nPflugerville, TX 78660","Schedule":"Tue, Nov 5: 7am - 7pm","Notes":"Combined precincts 145, 145, 148"}},{"type":"Feature","geometry":{"type":"Point","coordinates":[-97.636496,30.446463]},"properties":{"Type":"Precinct 146","Name":"Pflugerville ISD Administration Building","Street":"1401 West Pecan Street","City":"Pflugerville","State":"TX","Zip":"78660","Formatted":"Pflugerville ISD Administration Building\n1401 West Pecan Street\nPflugerville, TX 78660","Schedule":"Tue, Nov 5: 7am - 7pm","Notes":null}},{"type":"Feature","geometry":{"type":"Point","coordinates":[-97.65221,30.44886]},"properties":{"Type":"Precinct 148","Name":"County Tax Office, Pflugerville","Street":"15822 Foothill Farms Loop","City":"Pflugerville","State":"TX","Zip":"78660","Formatted":"County Tax Office, Pflugerville\n15822 Foothill Farms Loop\nPflugerville, TX 78660","Schedule":"Tue, Nov 5: 7am - 7pm","Notes":"Combined precincts 145, 148, 148"}},{"type":"Feature","geometry":{"type":"Point","coordinates":[-97.719923,30.328359]},"properties":{"Type":"Precinct 149","Name":"Reilly Elementary School","Street":"405 Denson Drive","City":"Austin","State":"TX","Zip":"78752","Formatted":"Reilly Elementary School\n405 Denson Drive\nAustin, TX 78752","Schedule":"Tue, Nov 5: 7am - 7pm","Notes":null}},{"type":"Feature","geometry":{"type":"Point","coordinates":[-97.618074,30.452447]},"properties":{"Type":"Precinct 150","Name":"Brookhollow Elementary School","Street":"1200 North Railroad Avenue","City":"Pflugerville","State":"TX","Zip":"78660","Formatted":"Brookhollow Elementary School\n1200 North Railroad Avenue\nPflugerville, TX 78660","Schedule":"Tue, Nov 5: 7am - 7pm","Notes":null}},{"type":"Feature","geometry":{"type":"Point","coordinates":[-97.673548,30.314251]},"properties":{"Type":"Precinct 151","Name":"Dottie Jordan Recreation Center","Street":"2803 Loyola Lane","City":"Austin","State":"TX","Zip":"78723","Formatted":"Dottie Jordan Recreation Center\n2803 Loyola Lane\nAustin, TX 78723","Schedule":"Tue, Nov 5: 7am - 7pm","Notes":null}},{"type":"Feature","geometry":{"type":"Point","coordinates":[-97.71764,30.29642]},"properties":{"Type":"Precinct 1520","Name":"Fiesta Mart Central","Street":"3909 North IH-35","City":"Austin","State":"TX","Zip":"78722","Formatted":"Fiesta Mart Central\n3909 North IH-35\nAustin, TX 78722","Schedule":"Tue, Nov 5: 7am - 7pm","Notes":null}},{"type":"Feature","geometry":{"type":"Point","coordinates":[-97.714301,30.293096]},"properties":{"Type":"Precinct 152","Name":"Maplewood Elementary School","Street":"3808 Maplewood Avenue","City":"Austin","State":"TX","Zip":"78722","Formatted":"Maplewood Elementary School\n3808 Maplewood Avenue\nAustin, TX 78722","Schedule":"Tue, Nov 5: 7am - 7pm","Notes":null}},{"type":"Feature","geometry":{"type":"Point","coordinates":[-97.639875,30.361804]},"properties":{"Type":"Precinct 153","Name":"Pioneer Crossing Elementary School","Street":"11300 Samsung Boulevard","City":"Austin","State":"TX","Zip":"78754","Formatted":"Pioneer Crossing Elementary School\n11300 Samsung Boulevard\nAustin, TX 78754","Schedule":"Tue, Nov 5: 7am - 7pm","Notes":null}},{"type":"Feature","geometry":{"type":"Point","coordinates":[-97.618289,30.351472]},"properties":{"Type":"Precinct 154","Name":"Bluebonnet Trail Elementary School","Street":"11316 Farmhaven Road","City":"Austin","State":"TX","Zip":"78754","Formatted":"Bluebonnet Trail Elementary School\n11316 Farmhaven Road\nAustin, TX 78754","Schedule":"Tue, Nov 5: 7am - 7pm","Notes":"Combined precincts 125, 127, 154, 154"}},{"type":"Feature","geometry":{"type":"Point","coordinates":[-97.69341,30.33222]},"properties":{"Type":"Precinct 156","Name":"Virginia Brown Recreation Center","Street":"7500 Blessing Avenue","City":"Austin","State":"TX","Zip":"78752","Formatted":"Virginia Brown Recreation Center\n7500 Blessing Avenue\nAustin, TX 78752","Schedule":"Tue, Nov 5: 7am - 7pm","Notes":null}},{"type":"Feature","geometry":{"type":"Point","coordinates":[-97.645025,30.442495]},"properties":{"Type":"Precinct 160","Name":"Spring Hill Elementary School","Street":"600 South Heatherwilde Boulevard","City":"Pflugerville","State":"TX","Zip":"78660","Formatted":"Spring Hill Elementary School\n600 South Heatherwilde Boulevard\nPflugerville, TX 78660","Schedule":"Tue, Nov 5: 7am - 7pm","Notes":null}},{"type":"Feature","geometry":{"type":"Point","coordinates":[-97.618461,30.456036]},"properties":{"Type":"Precinct 161","Name":"Park Crest Middle School","Street":"1500 North Railroad Avenue","City":"Pflugerville","State":"TX","Zip":"78660","Formatted":"Park Crest Middle School\n1500 North Railroad Avenue\nPflugerville, TX 78660","Schedule":"Tue, Nov 5: 7am - 7pm","Notes":"Combined precincts 110, 161, 161"}},{"type":"Feature","geometry":{"type":"Point","coordinates":[-97.562628,30.477194]},"properties":{"Type":"Precinct 163","Name":"Rowe Lane Elementary School","Street":"3112 Speidel Drive","City":"Pflugerville","State":"TX","Zip":"78660","Formatted":"Rowe Lane Elementary School\n3112 Speidel Drive\nPflugerville, TX 78660","Schedule":"Tue, Nov 5: 7am - 7pm","Notes":"Combined precincts 137, 163, 163"}},{"type":"Feature","geometry":{"type":"Point","coordinates":[-97.69559,30.361174]},"properties":{"Type":"Precinct 164","Name":"Barrington Elementary School","Street":"400 Cooper Drive","City":"Austin","State":"TX","Zip":"78753","Formatted":"Barrington Elementary School\n400 Cooper Drive\nAustin, TX 78753","Schedule":"Tue, Nov 5: 7am - 7pm","Notes":null}},{"type":"Feature","geometry":{"type":"Point","coordinates":[-97.730577,30.315988]},"properties":{"Type":"Precinct 200","Name":"Winters Building","Street":"701 West 51st Street","City":"Austin","State":"TX","Zip":"78751","Formatted":"Winters Building\n701 West 51st Street\nAustin, TX 78751","Schedule":"Tue, Nov 5: 7am - 7pm","Notes":null}},{"type":"Feature","geometry":{"type":"Point","coordinates":[-97.719494,30.304493]},"properties":{"Type":"Precinct 202","Name":"Red River Church","Street":"4425 Red River Street","City":"Austin","State":"TX","Zip":"78751","Formatted":"Red River Church\n4425 Red River Street\nAustin, TX 78751","Schedule":"Tue, Nov 5: 7am - 7pm","Notes":null}},{"type":"Feature","geometry":{"type":"Point","coordinates":[-97.605355,30.413271]},"properties":{"Type":"Precinct 203","Name":"Boulder Ridge Community Room","Street":"3300 Killingsworth Lane","City":"Pflugerville","State":"TX","Zip":"78660","Formatted":"Boulder Ridge Community Room\n3300 Killingsworth Lane\nPflugerville, TX 78660","Schedule":"Tue, Nov 5: 7am - 7pm","Notes":null}},{"type":"Feature","geometry":{"type":"Point","coordinates":[-97.695056,30.409888]},"properties":{"Type":"Precinct 205","Name":"Camden Huntingdon Apartments","Street":"12349 Metric Boulevard","City":"Austin","State":"TX","Zip":"78758","Formatted":"Camden Huntingdon Apartments\n12349 Metric Boulevard\nAustin, TX 78758","Schedule":"Tue, Nov 5: 7am - 7pm","Notes":null}},{"type":"Feature","geometry":{"type":"Point","coordinates":[-97.727341,30.29356]},"properties":{"Type":"Precinct 206","Name":"Lee Elementary School","Street":"3308 Hampton Road","City":"Austin","State":"TX","Zip":"78705","Formatted":"Lee Elementary School\n3308 Hampton Road\nAustin, TX 78705","Schedule":"Tue, Nov 5: 7am - 7pm","Notes":null}},{"type":"Feature","geometry":{"type":"Point","coordinates":[-97.733688,30.445973]},"properties":{"Type":"Precinct 207","Name":"YMCA Northwest Branch","Street":"5807 McNeil Drive","City":"Austin","State":"TX","Zip":"78729","Formatted":"YMCA Northwest Branch\n5807 McNeil Drive\nAustin, TX 78729","Schedule":"Tue, Nov 5: 7am - 7pm","Notes":null}},{"type":"Feature","geometry":{"type":"Point","coordinates":[-97.74033,30.286086]},"properties":{"Type":"Precinct 208","Name":"University of Texas, Flawn Academic Center","Street":"2400 Inner Campus Drive (On the West Mall)","City":"Austin","State":"TX","Zip":"78712","Formatted":"University of Texas, Flawn Academic Center\n2400 Inner Campus Drive (On the West Mall)\nAustin, TX 78712","Schedule":"Tue, Nov 5: 7am - 7pm","Notes":"Combined precincts 208, 208, 277"}},{"type":"Feature","geometry":{"type":"Point","coordinates":[-97.70478,30.37811]},"properties":{"Type":"Precinct 209","Name":"Cook Elementary School","Street":"1511 Cripple Creek Drive","City":"Austin","State":"TX","Zip":"78758","Formatted":"Cook Elementary School\n1511 Cripple Creek Drive\nAustin, TX 78758","Schedule":"Tue, Nov 5: 7am - 7pm","Notes":"Combined precincts 209, 209, 222"}},{"type":"Feature","geometry":{"type":"Point","coordinates":[-97.774158,30.285899]},"properties":{"Type":"Precinct 210","Name":"O. Henry Middle School","Street":"2610 West 10th Street","City":"Austin","State":"TX","Zip":"78703","Formatted":"O. Henry Middle School\n2610 West 10th Street\nAustin, TX 78703","Schedule":"Tue, Nov 5: 7am - 7pm","Notes":"Combined precincts 210, 210, 251"}},{"type":"Feature","geometry":{"type":"Point","coordinates":[-97.684132,30.37941]},"properties":{"Type":"Precinct 211","Name":"Walnut Creek Elementary School","Street":"401 West Braker Lane","City":"Austin","State":"TX","Zip":"78753","Formatted":"Walnut Creek Elementary School\n401 West Braker Lane\nAustin, TX 78753","Schedule":"Tue, Nov 5: 7am - 7pm","Notes":null}},{"type":"Feature","geometry":{"type":"Point","coordinates":[-97.805743,30.339621]},"properties":{"Type":"Precinct 212","Name":"Bridge Point Elementary School","Street":"6401 Cedar Street","City":"Austin","State":"TX","Zip":"78746","Formatted":"Bridge Point Elementary School\n6401 Cedar Street\nAustin, TX 78746","Schedule":"Tue, Nov 5: 7am - 7pm","Notes":"Combined precincts 212, 212, 221"}},{"type":"Feature","geometry":{"type":"Point","coordinates":[-97.77976,30.34868]},"properties":{"Type":"Precinct 213","Name":"Cat Mountain Homeowners Association","Street":"6007 Mount Bonnell Road","City":"Austin","State":"TX","Zip":"78731","Formatted":"Cat Mountain Homeowners Association\n6007 Mount Bonnell Road\nAustin, TX 78731","Schedule":"Tue, Nov 5: 7am - 7pm","Notes":"Combined precincts 213, 213, 220, 231"}},{"type":"Feature","geometry":{"type":"Point","coordinates":[-97.75117,30.30516]},"properties":{"Type":"Precinct 214","Name":"Bryker Woods Elementary School","Street":"3309 Kerbey Lane","City":"Austin","State":"TX","Zip":"78703","Formatted":"Bryker Woods Elementary School\n3309 Kerbey Lane\nAustin, TX 78703","Schedule":"Tue, Nov 5: 7am - 7pm","Notes":null}},{"type":"Feature","geometry":{"type":"Point","coordinates":[-97.675796,30.445997]},"properties":{"Type":"Precinct 215","Name":"Wells Branch Community Library","Street":"15001 Wells Port Drive","City":"Austin","State":"TX","Zip":"78728","Formatted":"Wells Branch Community Library\n15001 Wells Port Drive\nAustin, TX 78728","Schedule":"Tue, Nov 5: 7am - 7pm","Notes":null}},{"type":"Feature","geometry":{"type":"Point","coordinates":[-97.675793,30.431732]},"properties":{"Type":"Precinct 216","Name":"Northwest Elementary School","Street":"14014 Thermal Drive","City":"Austin","State":"TX","Zip":"78728","Formatted":"Northwest Elementary School\n14014 Thermal Drive\nAustin, TX 78728","Schedule":"Tue, Nov 5: 7am - 7pm","Notes":null}},{"type":"Feature","geometry":{"type":"Point","coordinates":[-97.70781,30.360795]},"properties":{"Type":"Precinct 217","Name":"Lanier High School","Street":"1201 Payton Gin Road","City":"Austin","State":"TX","Zip":"78758","Formatted":"Lanier High School\n1201 Payton Gin Road\nAustin, TX 78758","Schedule":"Tue, Nov 5: 7am - 7pm","Notes":"Combined precincts 217, 217, 223, 224"}},{"type":"Feature","geometry":{"type":"Point","coordinates":[-97.70448,30.40319]},"properties":{"Type":"Precinct 218","Name":"ACC Northridge Campus","Street":"11928 Stonehollow Drive","City":"Austin","State":"TX","Zip":"78758","Formatted":"ACC Northridge Campus\n11928 Stonehollow Drive\nAustin, TX 78758","Schedule":"Tue, Nov 5: 7am - 7pm","Notes":null}},{"type":"Feature","geometry":{"type":"Point","coordinates":[-97.655218,30.468326]},"properties":{"Type":"Precinct 219","Name":"Caldwell Elementary School","Street":"1718 Picadilly Drive","City":"Round Rock","State":"TX","Zip":"78664","Formatted":"Caldwell Elementary School\n1718 Picadilly Drive\nRound Rock, TX 78664","Schedule":"Tue, Nov 5: 7am - 7pm","Notes":null}},{"type":"Feature","geometry":{"type":"Point","coordinates":[-97.77976,30.34868]},"properties":{"Type":"Precinct 220","Name":"Cat Mountain Homeowners Association","Street":"6007 Mount Bonnell Road","City":"Austin","State":"TX","Zip":"78731","Formatted":"Cat Mountain Homeowners Association\n6007 Mount Bonnell Road\nAustin, TX 78731","Schedule":"Tue, Nov 5: 7am - 7pm","Notes":"Combined precincts 213, 220, 220, 231"}},{"type":"Feature","geometry":{"type":"Point","coordinates":[-97.805743,30.339621]},"properties":{"Type":"Precinct 221","Name":"Bridge Point Elementary School","Street":"6401 Cedar Street","City":"Austin","State":"TX","Zip":"78746","Formatted":"Bridge Point Elementary School\n6401 Cedar Street\nAustin, TX 78746","Schedule":"Tue, Nov 5: 7am - 7pm","Notes":"Combined precincts 212, 221, 221"}},{"type":"Feature","geometry":{"type":"Point","coordinates":[-97.70478,30.37811]},"properties":{"Type":"Precinct 222","Name":"Cook Elementary School","Street":"1511 Cripple Creek Drive","City":"Austin","State":"TX","Zip":"78758","Formatted":"Cook Elementary School\n1511 Cripple Creek Drive\nAustin, TX 78758","Schedule":"Tue, Nov 5: 7am - 7pm","Notes":"Combined precincts 209, 222, 222"}},{"type":"Feature","geometry":{"type":"Point","coordinates":[-97.70781,30.360795]},"properties":{"Type":"Precinct 223","Name":"Lanier High School","Street":"1201 Payton Gin Road","City":"Austin","State":"TX","Zip":"78758","Formatted":"Lanier High School\n1201 Payton Gin Road\nAustin, TX 78758","Schedule":"Tue, Nov 5: 7am - 7pm","Notes":"Combined precincts 217, 223, 223, 224"}},{"type":"Feature","geometry":{"type":"Point","coordinates":[-97.70781,30.360795]},"properties":{"Type":"Precinct 224","Name":"Lanier High School","Street":"1201 Payton Gin Road","City":"Austin","State":"TX","Zip":"78758","Formatted":"Lanier High School\n1201 Payton Gin Road\nAustin, TX 78758","Schedule":"Tue, Nov 5: 7am - 7pm","Notes":"Combined precincts 217, 223, 224, 224"}},{"type":"Feature","geometry":{"type":"Point","coordinates":[-97.683641,30.45486]},"properties":{"Type":"Precinct 225","Name":"Wells Branch MUD Recreation Center","Street":"3000 Shoreline Drive","City":"Austin","State":"TX","Zip":"78728","Formatted":"Wells Branch MUD Recreation Center\n3000 Shoreline Drive\nAustin, TX 78728","Schedule":"Tue, Nov 5: 7am - 7pm","Notes":null}},{"type":"Feature","geometry":{"type":"Point","coordinates":[-97.651912,30.380821]},"properties":{"Type":"Precinct 226","Name":"Villas of Bristol Heights Apartments","Street":"12041 Dessau Road","City":"Austin","State":"TX","Zip":"78754","Formatted":"Villas of Bristol Heights Apartments\n12041 Dessau Road\nAustin, TX 78754","Schedule":"Tue, Nov 5: 7am - 7pm","Notes":"Combined precincts 226, 226, 227"}},{"type":"Feature","geometry":{"type":"Point","coordinates":[-97.651912,30.380821]},"properties":{"Type":"Precinct 227","Name":"Villas of Bristol Heights Apartments","Street":"12041 Dessau Road","City":"Austin","State":"TX","Zip":"78754","Formatted":"Villas of Bristol Heights Apartments\n12041 Dessau Road\nAustin, TX 78754","Schedule":"Tue, Nov 5: 7am - 7pm","Notes":"Combined precincts 226, 227, 227"}},{"type":"Feature","geometry":{"type":"Point","coordinates":[-97.67899,30.442229]},"properties":{"Type":"Precinct 229","Name":"Wells Branch Community Center","Street":"2106 Klattenhoff Drive","City":"Austin","State":"TX","Zip":"78728","Formatted":"Wells Branch Community Center\n2106 Klattenhoff Drive\nAustin, TX 78728","Schedule":"Tue, Nov 5: 7am - 7pm","Notes":null}},{"type":"Feature","geometry":{"type":"Point","coordinates":[-97.744288,30.418998]},"properties":{"Type":"Precinct 228","Name":"Emeritus at North Austin","Street":"5310 Duval Road","City":"Austin","State":"TX","Zip":"78727","Formatted":"Emeritus at North Austin\n5310 Duval Road\nAustin, TX 78727","Schedule":"Tue, Nov 5: 7am - 7pm","Notes":"Combined precincts 228, 228, 254, 267"}},{"type":"Feature","geometry":{"type":"Point","coordinates":[-97.77976,30.34868]},"properties":{"Type":"Precinct 231","Name":"Cat Mountain Homeowners Association","Street":"6007 Mount Bonnell Road","City":"Austin","State":"TX","Zip":"78731","Formatted":"Cat Mountain Homeowners Association\n6007 Mount Bonnell Road\nAustin, TX 78731","Schedule":"Tue, Nov 5: 7am - 7pm","Notes":"Combined precincts 213, 220, 231, 231"}},{"type":"Feature","geometry":{"type":"Point","coordinates":[-97.902984,30.364942]},"properties":{"Type":"Precinct 232","Name":"Canyon Ridge Middle School","Street":"12601 Country Trails Lane","City":"Austin","State":"TX","Zip":"78732","Formatted":"Canyon Ridge Middle School\n12601 Country Trails Lane\nAustin, TX 78732","Schedule":"Tue, Nov 5: 7am - 7pm","Notes":null}},{"type":"Feature","geometry":{"type":"Point","coordinates":[-97.806052,30.359962]},"properties":{"Type":"Precinct 233","Name":"Shepherd of the Hills Christian Church","Street":"6909 West Courtyard Drive","City":"Austin","State":"TX","Zip":"78730","Formatted":"Shepherd of the Hills Christian Church\n6909 West Courtyard Drive\nAustin, TX 78730","Schedule":"Tue, Nov 5: 7am - 7pm","Notes":null}},{"type":"Feature","geometry":{"type":"Point","coordinates":[-97.847344,30.387074]},"properties":{"Type":"Precinct 234","Name":"Austin Christian Fellowship","Street":"6401 River Place Boulevard","City":"Austin","State":"TX","Zip":"78730","Formatted":"Austin Christian Fellowship\n6401 River Place Boulevard\nAustin, TX 78730","Schedule":"Tue, Nov 5: 7am - 7pm","Notes":null}},{"type":"Feature","geometry":{"type":"Point","coordinates":[-97.729247,30.326897]},"properties":{"Type":"Precinct 235","Name":"McCallum High School","Street":"5600 Sunshine Drive","City":"Austin","State":"TX","Zip":"78756","Formatted":"McCallum High School\n5600 Sunshine Drive\nAustin, TX 78756","Schedule":"Tue, Nov 5: 7am - 7pm","Notes":null}},{"type":"Feature","geometry":{"type":"Point","coordinates":[-97.74033,30.320155]},"properties":{"Type":"Precinct 236","Name":"Rosedale School","Street":"2117 West 49th Street","City":"Austin","State":"TX","Zip":"78756","Formatted":"Rosedale School\n2117 West 49th Street\nAustin, TX 78756","Schedule":"Tue, Nov 5: 7am - 7pm","Notes":null}},{"type":"Feature","geometry":{"type":"Point","coordinates":[-97.760028,30.335241]},"properties":{"Type":"Precinct 237","Name":"Highland Park Baptist Church","Street":"5206 Balcones Drive","City":"Austin","State":"TX","Zip":"78731","Formatted":"Highland Park Baptist Church\n5206 Balcones Drive\nAustin, TX 78731","Schedule":"Tue, Nov 5: 7am - 7pm","Notes":null}},{"type":"Feature","geometry":{"type":"Point","coordinates":[-97.758869,30.354148]},"properties":{"Type":"Precinct 238","Name":"Murchison Middle School","Street":"3700 North Hills Drive","City":"Austin","State":"TX","Zip":"78731","Formatted":"Murchison Middle School\n3700 North Hills Drive\nAustin, TX 78731","Schedule":"Tue, Nov 5: 7am - 7pm","Notes":null}},{"type":"Feature","geometry":{"type":"Point","coordinates":[-97.748795,30.343149]},"properties":{"Type":"Precinct 239","Name":"Gullett Elementary School","Street":"6310 Treadwell Boulevard","City":"Austin","State":"TX","Zip":"78757","Formatted":"Gullett Elementary School\n6310 Treadwell Boulevard\nAustin, TX 78757","Schedule":"Tue, Nov 5: 7am - 7pm","Notes":null}},{"type":"Feature","geometry":{"type":"Point","coordinates":[-97.759845,30.330092]},"properties":{"Type":"Precinct 240","Name":"Highland Park Elementary School","Street":"4900 Fairview Drive","City":"Austin","State":"TX","Zip":"78731","Formatted":"Highland Park Elementary School\n4900 Fairview Drive\nAustin, TX 78731","Schedule":"Tue, Nov 5: 7am - 7pm","Notes":null}},{"type":"Feature","geometry":{"type":"Point","coordinates":[-97.73107,30.33978]},"properties":{"Type":"Precinct 241","Name":"Brentwood Elementary School","Street":"6700 Arroyo Seco","City":"Austin","State":"TX","Zip":"78757","Formatted":"Brentwood Elementary School\n6700 Arroyo Seco\nAustin, TX 78757","Schedule":"Tue, Nov 5: 7am - 7pm","Notes":null}},{"type":"Feature","geometry":{"type":"Point","coordinates":[-97.729622,30.334602]},"properties":{"Type":"Precinct 242","Name":"Northwest Baptist Church","Street":"6301 Woodrow Avenue","City":"Austin","State":"TX","Zip":"78757","Formatted":"Northwest Baptist Church\n6301 Woodrow Avenue\nAustin, TX 78757","Schedule":"Tue, Nov 5: 7am - 7pm","Notes":null}},{"type":"Feature","geometry":{"type":"Point","coordinates":[-97.738055,30.358129]},"properties":{"Type":"Precinct 243","Name":"Ben Hur Shrine Center","Street":"7811 Rockwood Lane","City":"Austin","State":"TX","Zip":"78757","Formatted":"Ben Hur Shrine Center\n7811 Rockwood Lane\nAustin, TX 78757","Schedule":"Tue, Nov 5: 7am - 7pm","Notes":null}},{"type":"Feature","geometry":{"type":"Point","coordinates":[-97.883892,30.389128]},"properties":{"Type":"Precinct 244","Name":"Randalls Steiner Ranch","Street":"5145 RM 620 North","City":"Austin","State":"TX","Zip":"78732","Formatted":"Randalls Steiner Ranch\n5145 RM 620 North\nAustin, TX 78732","Schedule":"Tue, Nov 5: 7am - 7pm","Notes":null}},{"type":"Feature","geometry":{"type":"Point","coordinates":[-97.852907,30.416315]},"properties":{"Type":"Precinct 245","Name":"Grandview Hills Elementary School","Street":"12024 Vista Parke Drive","City":"Austin","State":"TX","Zip":"78726","Formatted":"Grandview Hills Elementary School\n12024 Vista Parke Drive\nAustin, TX 78726","Schedule":"Tue, Nov 5: 7am - 7pm","Notes":null}},{"type":"Feature","geometry":{"type":"Point","coordinates":[-97.7487,30.37672]},"properties":{"Type":"Precinct 246","Name":"Hill Elementary School","Street":"8601 Tallwood Drive","City":"Austin","State":"TX","Zip":"78759","Formatted":"Hill Elementary School\n8601 Tallwood Drive\nAustin, TX 78759","Schedule":"Tue, Nov 5: 7am - 7pm","Notes":null}},{"type":"Feature","geometry":{"type":"Point","coordinates":[-97.762527,30.356323]},"properties":{"Type":"Precinct 247","Name":"Doss Elementary School","Street":"7005 Northledge Drive","City":"Austin","State":"TX","Zip":"78731","Formatted":"Doss Elementary School\n7005 Northledge Drive\nAustin, TX 78731","Schedule":"Tue, Nov 5: 7am - 7pm","Notes":null}},{"type":"Feature","geometry":{"type":"Point","coordinates":[-97.72589,30.36445]},"properties":{"Type":"Precinct 248","Name":"Burnet Middle School","Street":"8401 Hathaway Drive","City":"Austin","State":"TX","Zip":"78757","Formatted":"Burnet Middle School\n8401 Hathaway Drive\nAustin, TX 78757","Schedule":"Tue, Nov 5: 7am - 7pm","Notes":null}},{"type":"Feature","geometry":{"type":"Point","coordinates":[-97.756852,30.374282]},"properties":{"Type":"Precinct 249","Name":"St. Matthews Episcopal Church","Street":"8134 Mesa Drive","City":"Austin","State":"TX","Zip":"78759","Formatted":"St. Matthews Episcopal Church\n8134 Mesa Drive\nAustin, TX 78759","Schedule":"Tue, Nov 5: 7am - 7pm","Notes":"Combined precincts 249, 249, 262"}},{"type":"Feature","geometry":{"type":"Point","coordinates":[-97.7608,30.278341]},"properties":{"Type":"Precinct 250","Name":"Mathews Elementary School","Street":"906 West Lynn Street","City":"Austin","State":"TX","Zip":"78703","Formatted":"Mathews Elementary School\n906 West Lynn Street\nAustin, TX 78703","Schedule":"Tue, Nov 5: 7am - 7pm","Notes":null}},{"type":"Feature","geometry":{"type":"Point","coordinates":[-97.774158,30.285899]},"properties":{"Type":"Precinct 251","Name":"O. Henry Middle School","Street":"2610 West 10th Street","City":"Austin","State":"TX","Zip":"78703","Formatted":"O. Henry Middle School\n2610 West 10th Street\nAustin, TX 78703","Schedule":"Tue, Nov 5: 7am - 7pm","Notes":"Combined precincts 210, 251, 251"}},{"type":"Feature","geometry":{"type":"Point","coordinates":[-97.73048,30.36216]},"properties":{"Type":"Precinct 252","Name":"North Village Library","Street":"2505 Steck Avenue","City":"Austin","State":"TX","Zip":"78757","Formatted":"North Village Library\n2505 Steck Avenue\nAustin, TX 78757","Schedule":"Tue, Nov 5: 7am - 7pm","Notes":null}},{"type":"Feature","geometry":{"type":"Point","coordinates":[-97.757973,30.369425]},"properties":{"Type":"Precinct 253","Name":"First Presbyterian Church","Street":"8001 Mesa Drive","City":"Austin","State":"TX","Zip":"78731","Formatted":"First Presbyterian Church\n8001 Mesa Drive\nAustin, TX 78731","Schedule":"Tue, Nov 5: 7am - 7pm","Notes":null}},{"type":"Feature","geometry":{"type":"Point","coordinates":[-97.744288,30.418998]},"properties":{"Type":"Precinct 254","Name":"Emeritus at North Austin","Street":"5310 Duval Road","City":"Austin","State":"TX","Zip":"78727","Formatted":"Emeritus at North Austin\n5310 Duval Road\nAustin, TX 78727","Schedule":"Tue, Nov 5: 7am - 7pm","Notes":"Combined precincts 228, 254, 254, 267"}},{"type":"Feature","geometry":{"type":"Point","coordinates":[-97.7676,30.2982]},"properties":{"Type":"Precinct 256","Name":"Howson Branch Library","Street":"2500 Exposition Boulevard","City":"Austin","State":"TX","Zip":"78703","Formatted":"Howson Branch Library\n2500 Exposition Boulevard\nAustin, TX 78703","Schedule":"Tue, Nov 5: 7am - 7pm","Notes":"Combined precincts 256, 256, 266"}},{"type":"Feature","geometry":{"type":"Point","coordinates":[-97.69043,30.38302]},"properties":{"Type":"Precinct 258","Name":"McBee Elementary School","Street":"1001 West  Braker Lane","City":"Austin","State":"TX","Zip":"78758","Formatted":"McBee Elementary School\n1001 West  Braker Lane\nAustin, TX 78758","Schedule":"Tue, Nov 5: 7am - 7pm","Notes":null}},{"type":"Feature","geometry":{"type":"Point","coordinates":[-97.71931,30.41852]},"properties":{"Type":"Precinct 259","Name":"Summitt Elementary School","Street":"12207 Brigadoon Lane","City":"Austin","State":"TX","Zip":"78727","Formatted":"Summitt Elementary School\n12207 Brigadoon Lane\nAustin, TX 78727","Schedule":"Tue, Nov 5: 7am - 7pm","Notes":null}},{"type":"Feature","geometry":{"type":"Point","coordinates":[-97.716749,30.366101]},"properties":{"Type":"Precinct 260","Name":"Austin Brethren Church","Street":"1800 Payton Gin Road","City":"Austin","State":"TX","Zip":"78758","Formatted":"Austin Brethren Church\n1800 Payton Gin Road\nAustin, TX 78758","Schedule":"Tue, Nov 5: 7am - 7pm","Notes":null}},{"type":"Feature","geometry":{"type":"Point","coordinates":[-97.756852,30.374282]},"properties":{"Type":"Precinct 262","Name":"St. Matthews Episcopal Church","Street":"8134 Mesa Drive","City":"Austin","State":"TX","Zip":"78759","Formatted":"St. Matthews Episcopal Church\n8134 Mesa Drive\nAustin, TX 78759","Schedule":"Tue, Nov 5: 7am - 7pm","Notes":"Combined precincts 249, 262, 262"}},{"type":"Feature","geometry":{"type":"Point","coordinates":[-97.709237,30.423827]},"properties":{"Type":"Precinct 263","Name":"United Christian Church","Street":"3500 West Parmer Lane","City":"Austin","State":"TX","Zip":"78727","Formatted":"United Christian Church\n3500 West Parmer Lane\nAustin, TX 78727","Schedule":"Tue, Nov 5: 7am - 7pm","Notes":null}},{"type":"Feature","geometry":{"type":"Point","coordinates":[-97.7676,30.2982]},"properties":{"Type":"Precinct 266","Name":"Howson Branch Library","Street":"2500 Exposition Boulevard","City":"Austin","State":"TX","Zip":"78703","Formatted":"Howson Branch Library\n2500 Exposition Boulevard\nAustin, TX 78703","Schedule":"Tue, Nov 5: 7am - 7pm","Notes":"Combined precincts 256, 266, 266"}},{"type":"Feature","geometry":{"type":"Point","coordinates":[-97.744288,30.418998]},"properties":{"Type":"Precinct 267","Name":"Emeritus at North Austin","Street":"5310 Duval Road","City":"Austin","State":"TX","Zip":"78727","Formatted":"Emeritus at North Austin\n5310 Duval Road\nAustin, TX 78727","Schedule":"Tue, Nov 5: 7am - 7pm","Notes":"Combined precincts 228, 254, 267, 267"}},{"type":"Feature","geometry":{"type":"Point","coordinates":[-97.704377,30.385372]},"properties":{"Type":"Precinct 268","Name":"Grant AME Worship Center","Street":"1701 Kramer Lane","City":"Austin","State":"TX","Zip":"78758","Formatted":"Grant AME Worship Center\n1701 Kramer Lane\nAustin, TX 78758","Schedule":"Tue, Nov 5: 7am - 7pm","Notes":null}},{"type":"Feature","geometry":{"type":"Point","coordinates":[-97.747378,30.308337]},"properties":{"Type":"Precinct 273","Name":"Congregation Beth Israel","Street":"3901 Shoal Creek Blvd.","City":"Austin","State":"TX","Zip":"78756","Formatted":"Congregation Beth Israel\n3901 Shoal Creek Blvd.\nAustin, TX 78756","Schedule":"Tue, Nov 5: 7am - 7pm","Notes":null}},{"type":"Feature","geometry":{"type":"Point","coordinates":[-97.738731,30.295341]},"properties":{"Type":"Precinct 274","Name":"First English Lutheran Church","Street":"3001 Whitis Avenue","City":"Austin","State":"TX","Zip":"78705","Formatted":"First English Lutheran Church\n3001 Whitis Avenue\nAustin, TX 78705","Schedule":"Tue, Nov 5: 7am - 7pm","Notes":null}},{"type":"Feature","geometry":{"type":"Point","coordinates":[-97.73588,30.30393]},"properties":{"Type":"Precinct 275","Name":"Baker Center","Street":"3908 Avenue B (Enter off of 39th Street)","City":"Austin","State":"TX","Zip":"78751","Formatted":"Baker Center\n3908 Avenue B (Enter off of 39th Street)\nAustin, TX 78751","Schedule":"Tue, Nov 5: 7am - 7pm","Notes":null}},{"type":"Feature","geometry":{"type":"Point","coordinates":[-97.74033,30.286086]},"properties":{"Type":"Precinct 277","Name":"University of Texas, Flawn Academic Center","Street":"2400 Inner Campus Drive (On the West Mall)","City":"Austin","State":"TX","Zip":"78712","Formatted":"University of Texas, Flawn Academic Center\n2400 Inner Campus Drive (On the West Mall)\nAustin, TX 78712","Schedule":"Tue, Nov 5: 7am - 7pm","Notes":"Combined precincts 208, 277, 277"}},{"type":"Feature","geometry":{"type":"Point","coordinates":[-97.81079,30.22832]},"properties":{"Type":"Precinct 301","Name":"Sunset Valley City Hall","Street":"3205 Jones Road","City":"Sunset Valley","State":"TX","Zip":"78745","Formatted":"Sunset Valley City Hall\n3205 Jones Road\nSunset Valley, TX 78745","Schedule":"Tue, Nov 5: 7am - 7pm","Notes":null}},{"type":"Feature","geometry":{"type":"Point","coordinates":[-97.872519,30.164163]},"properties":{"Type":"Precinct 302","Name":"Bailey Middle School","Street":"4020 Lost Oasis Hollow","City":"Austin","State":"TX","Zip":"78739","Formatted":"Bailey Middle School\n4020 Lost Oasis Hollow\nAustin, TX 78739","Schedule":"Tue, Nov 5: 7am - 7pm","Notes":null}},{"type":"Feature","geometry":{"type":"Point","coordinates":[-97.923911,30.197381]},"properties":{"Type":"Precinct 303","Name":"Oak Hill Primitive Baptist Church","Street":"11408 FM 1826","City":"Austin","State":"TX","Zip":"78737","Formatted":"Oak Hill Primitive Baptist Church\n11408 FM 1826\nAustin, TX 78737","Schedule":"Tue, Nov 5: 7am - 7pm","Notes":null}},{"type":"Feature","geometry":{"type":"Point","coordinates":[-97.881247,30.191676]},"properties":{"Type":"Precinct 304","Name":"Kiker Elementary School","Street":"5913 La Crosse Avenue","City":"Austin","State":"TX","Zip":"78739","Formatted":"Kiker Elementary School\n5913 La Crosse Avenue\nAustin, TX 78739","Schedule":"Tue, Nov 5: 7am - 7pm","Notes":null}},{"type":"Feature","geometry":{"type":"Point","coordinates":[-97.7521,30.39879]},"properties":{"Type":"Precinct 305","Name":"Great Hills Baptist Church","Street":"10500 Jollyville Road","City":"Austin","State":"TX","Zip":"78759","Formatted":"Great Hills Baptist Church\n10500 Jollyville Road\nAustin, TX 78759","Schedule":"Tue, Nov 5: 7am - 7pm","Notes":"Combined precincts 305, 305, 323, 345"}},{"type":"Feature","geometry":{"type":"Point","coordinates":[-97.981294,30.362589]},"properties":{"Type":"Precinct 306","Name":"Lakeway Activity Center","Street":"105 Cross Creek Drive","City":"Lakeway","State":"TX","Zip":"78734","Formatted":"Lakeway Activity Center\n105 Cross Creek Drive\nLakeway, TX 78734","Schedule":"Tue, Nov 5: 7am - 7pm","Notes":"Combined precincts 306, 306, 319, 346"}},{"type":"Feature","geometry":{"type":"Point","coordinates":[-97.788588,30.275682]},"properties":{"Type":"Precinct 307","Name":"Rollingwood Municipal Building","Street":"403 Nixon Drive","City":"Rollingwood","State":"TX","Zip":"78746","Formatted":"Rollingwood Municipal Building\n403 Nixon Drive\nRollingwood, TX 78746","Schedule":"Tue, Nov 5: 7am - 7pm","Notes":"Combined precincts 307, 307, 356"}},{"type":"Feature","geometry":{"type":"Point","coordinates":[-98.057163,30.406576]},"properties":{"Type":"Precinct 308","Name":"Briarcliff P.O.A. Community Center","Street":"22801 Braircliff Drive","City":"Briarcliff","State":"TX","Zip":"78669","Formatted":"Briarcliff P.O.A. Community Center\n22801 Braircliff Drive\nBriarcliff, TX 78669","Schedule":"Tue, Nov 5: 7am - 7pm","Notes":null}},{"type":"Feature","geometry":{"type":"Point","coordinates":[-97.833724,30.188686]},"properties":{"Type":"Precinct 309","Name":"Cowan Elementary School","Street":"2817 Kentish DR","City":"Austin","State":"TX","Zip":"78748","Formatted":"Cowan Elementary School\n2817 Kentish DR\nAustin, TX 78748","Schedule":"Tue, Nov 5: 7am - 7pm","Notes":"Combined precincts 309, 309, 350"}},{"type":"Feature","geometry":{"type":"Point","coordinates":[-97.83239,30.14004]},"properties":{"Type":"Precinct 310","Name":"Manchaca United Methodist Church","Street":"1011 FM 1626","City":"Manchaca","State":"TX","Zip":"78652","Formatted":"Manchaca United Methodist Church\n1011 FM 1626\nManchaca, TX 78652","Schedule":"Tue, Nov 5: 7am - 7pm","Notes":null}},{"type":"Feature","geometry":{"type":"Point","coordinates":[-97.748494,30.297444]},"properties":{"Type":"Precinct 311","Name":"Senior Activity Center","Street":"2874 Shoal Crest Avenue","City":"Austin","State":"TX","Zip":"78705","Formatted":"Senior Activity Center\n2874 Shoal Crest Avenue\nAustin, TX 78705","Schedule":"Tue, Nov 5: 7am - 7pm","Notes":"Combined precincts 311, 311, 313"}},{"type":"Feature","geometry":{"type":"Point","coordinates":[-97.92954,30.39844]},"properties":{"Type":"Precinct 312","Name":"Travis County Sheriff's Office","Street":"3800 Hudson Bend Road","City":"Austin","State":"TX","Zip":"78734","Formatted":"Travis County Sheriff's Office\n3800 Hudson Bend Road\nAustin, TX 78734","Schedule":"Tue, Nov 5: 7am - 7pm","Notes":null}},{"type":"Feature","geometry":{"type":"Point","coordinates":[-97.748494,30.297444]},"properties":{"Type":"Precinct 313","Name":"Senior Activity Center","Street":"2874 Shoal Crest Avenue","City":"Austin","State":"TX","Zip":"78705","Formatted":"Senior Activity Center\n2874 Shoal Crest Avenue\nAustin, TX 78705","Schedule":"Tue, Nov 5: 7am - 7pm","Notes":"Combined precincts 311, 313, 313"}},{"type":"Feature","geometry":{"type":"Point","coordinates":[-97.883195,30.279022]},"properties":{"Type":"Precinct 314","Name":"Oak Hill Fire Dept. Barton Creek Station","Street":"4111 Barton Creek Boulevard","City":"Austin","State":"TX","Zip":"78735","Formatted":"Oak Hill Fire Dept. Barton Creek Station\n4111 Barton Creek Boulevard\nAustin, TX 78735","Schedule":"Tue, Nov 5: 7am - 7pm","Notes":null}},{"type":"Feature","geometry":{"type":"Point","coordinates":[-97.854061,30.154001]},"properties":{"Type":"Precinct 315","Name":"Villages Amenities Center","Street":"12006 Gatling Gun Lane","City":"Austin","State":"TX","Zip":"78748","Formatted":"Villages Amenities Center\n12006 Gatling Gun Lane\nAustin, TX 78748","Schedule":"Tue, Nov 5: 7am - 7pm","Notes":null}},{"type":"Feature","geometry":{"type":"Point","coordinates":[-97.972869,30.30758]},"properties":{"Type":"Precinct 316","Name":"Travis County Parks Office","Street":"14624 Hamilton Pool Road","City":"Austin","State":"TX","Zip":"78738","Formatted":"Travis County Parks Office\n14624 Hamilton Pool Road\nAustin, TX 78738","Schedule":"Tue, Nov 5: 7am - 7pm","Notes":null}},{"type":"Feature","geometry":{"type":"Point","coordinates":[-97.83352,30.28377]},"properties":{"Type":"Precinct 317","Name":"Lost Creek MUD Office","Street":"1305 Quaker Ridge Drive","City":"Austin","State":"TX","Zip":"78746","Formatted":"Lost Creek MUD Office\n1305 Quaker Ridge Drive\nAustin, TX 78746","Schedule":"Tue, Nov 5: 7am - 7pm","Notes":null}},{"type":"Feature","geometry":{"type":"Point","coordinates":[-97.871361,30.315636]},"properties":{"Type":"Precinct 318","Name":"Laura's Library","Street":"9411 Bee Cave Road","City":"Austin","State":"TX","Zip":"78733","Formatted":"Laura's Library\n9411 Bee Cave Road\nAustin, TX 78733","Schedule":"Tue, Nov 5: 7am - 7pm","Notes":"Combined precincts 318, 318, 330, 357"}},{"type":"Feature","geometry":{"type":"Point","coordinates":[-97.981294,30.362589]},"properties":{"Type":"Precinct 319","Name":"Lakeway Activity Center","Street":"105 Cross Creek Drive","City":"Lakeway","State":"TX","Zip":"78734","Formatted":"Lakeway Activity Center\n105 Cross Creek Drive\nLakeway, TX 78734","Schedule":"Tue, Nov 5: 7am - 7pm","Notes":"Combined precincts 306, 319, 319, 346"}},{"type":"Feature","geometry":{"type":"Point","coordinates":[-97.966429,30.341584]},"properties":{"Type":"Precinct 320","Name":"Randalls Lakeway","Street":"2301 RR 620 South","City":"Lakeway","State":"TX","Zip":"78734","Formatted":"Randalls Lakeway\n2301 RR 620 South\nLakeway, TX 78734","Schedule":"Tue, Nov 5: 7am - 7pm","Notes":null}},{"type":"Feature","geometry":{"type":"Point","coordinates":[-97.755822,30.39469]},"properties":{"Type":"Precinct 321","Name":"Triumphant Love Lutheran Church","Street":"9508 Great Hills Trail","City":"Austin","State":"TX","Zip":"78759","Formatted":"Triumphant Love Lutheran Church\n9508 Great Hills Trail\nAustin, TX 78759","Schedule":"Tue, Nov 5: 7am - 7pm","Notes":null}},{"type":"Feature","geometry":{"type":"Point","coordinates":[-97.7521,30.39879]},"properties":{"Type":"Precinct 323","Name":"Great Hills Baptist Church","Street":"10500 Jollyville Road","City":"Austin","State":"TX","Zip":"78759","Formatted":"Great Hills Baptist Church\n10500 Jollyville Road\nAustin, TX 78759","Schedule":"Tue, Nov 5: 7am - 7pm","Notes":"Combined precincts 305, 323, 323, 345"}},{"type":"Feature","geometry":{"type":"Point","coordinates":[-97.747132,30.401991]},"properties":{"Type":"Precinct 3230","Name":"Randalls Research and Braker","Street":"10900-D Research Boulevard","City":"Austin","State":"TX","Zip":"78759","Formatted":"Randalls Research and Braker\n10900-D Research Boulevard\nAustin, TX 78759","Schedule":"Tue, Nov 5: 7am - 7pm","Notes":null}},{"type":"Feature","geometry":{"type":"Point","coordinates":[-97.939939,30.308171]},"properties":{"Type":"Precinct 324","Name":"Bee Cave City Hall","Street":"4000 Galleria Parkway","City":"Bee Cave","State":"TX","Zip":"78738","Formatted":"Bee Cave City Hall\n4000 Galleria Parkway\nBee Cave, TX 78738","Schedule":"Tue, Nov 5: 7am - 7pm","Notes":"Combined precincts 324, 324, 368"}},{"type":"Feature","geometry":{"type":"Point","coordinates":[-97.747271,30.264553]},"properties":{"Type":"Precinct 325","Name":"Austin City Hall","Street":"301 West 2nd Street (Media Room)","City":"Austin","State":"TX","Zip":"78701","Formatted":"Austin City Hall\n301 West 2nd Street (Media Room)\nAustin, TX 78701","Schedule":"Tue, Nov 5: 7am - 7pm","Notes":"Combined precincts 325, 325, 329"}},{"type":"Feature","geometry":{"type":"Point","coordinates":[-97.781153,30.413978]},"properties":{"Type":"Precinct 326","Name":"Laurel Mountain Elementary School","Street":"10111 DK Ranch Road","City":"Austin","State":"TX","Zip":"78759","Formatted":"Laurel Mountain Elementary School\n10111 DK Ranch Road\nAustin, TX 78759","Schedule":"Tue, Nov 5: 7am - 7pm","Notes":null}},{"type":"Feature","geometry":{"type":"Point","coordinates":[-97.76718,30.39917]},"properties":{"Type":"Precinct 327","Name":"Fire Station #33","Street":"9409 Bluegrass Drive","City":"Austin","State":"TX","Zip":"78759","Formatted":"Fire Station #33\n9409 Bluegrass Drive\nAustin, TX 78759","Schedule":"Tue, Nov 5: 7am - 7pm","Notes":null}},{"type":"Feature","geometry":{"type":"Point","coordinates":[-97.751563,30.413052]},"properties":{"Type":"Precinct 328","Name":"Renaissance Retirement Center","Street":"11279 Taylor Draper Lane","City":"Austin","State":"TX","Zip":"78759","Formatted":"Renaissance Retirement Center\n11279 Taylor Draper Lane\nAustin, TX 78759","Schedule":"Tue, Nov 5: 7am - 7pm","Notes":null}},{"type":"Feature","geometry":{"type":"Point","coordinates":[-97.747271,30.264553]},"properties":{"Type":"Precinct 329","Name":"Austin City Hall","Street":"301 West 2nd Street (Media Room)","City":"Austin","State":"TX","Zip":"78701","Formatted":"Austin City Hall\n301 West 2nd Street (Media Room)\nAustin, TX 78701","Schedule":"Tue, Nov 5: 7am - 7pm","Notes":"Combined precincts 325, 329, 329"}},{"type":"Feature","geometry":{"type":"Point","coordinates":[-97.871361,30.315636]},"properties":{"Type":"Precinct 330","Name":"Laura's Library","Street":"9411 Bee Cave Road","City":"Austin","State":"TX","Zip":"78733","Formatted":"Laura's Library\n9411 Bee Cave Road\nAustin, TX 78733","Schedule":"Tue, Nov 5: 7am - 7pm","Notes":"Combined precincts 318, 330, 330, 357"}},{"type":"Feature","geometry":{"type":"Point","coordinates":[-97.769276,30.419868]},"properties":{"Type":"Precinct 331","Name":"Kathy Caraway Elementary School","Street":"11104 Oakview Drive (Enter off of Carlwood)","City":"Austin","State":"TX","Zip":"78759","Formatted":"Kathy Caraway Elementary School\n11104 Oakview Drive (Enter off of Carlwood)\nAustin, TX 78759","Schedule":"Tue, Nov 5: 7am - 7pm","Notes":null}},{"type":"Feature","geometry":{"type":"Point","coordinates":[-97.774673,30.252849]},"properties":{"Type":"Precinct 332","Name":"Zilker Elementary School","Street":"1900 Bluebonnet Lane","City":"Austin","State":"TX","Zip":"78704","Formatted":"Zilker Elementary School\n1900 Bluebonnet Lane\nAustin, TX 78704","Schedule":"Tue, Nov 5: 7am - 7pm","Notes":"Combined precincts 332, 332, 340, 341"}},{"type":"Feature","geometry":{"type":"Point","coordinates":[-97.824894,30.436871]},"properties":{"Type":"Precinct 333","Name":"Canyon Creek Elementary School","Street":"10210 Ember Glen Drive","City":"Austin","State":"TX","Zip":"78726","Formatted":"Canyon Creek Elementary School\n10210 Ember Glen Drive\nAustin, TX 78726","Schedule":"Tue, Nov 5: 7am - 7pm","Notes":"Combined precincts 333, 333, 343"}},{"type":"Feature","geometry":{"type":"Point","coordinates":[-97.811033,30.439332]},"properties":{"Type":"Precinct 334","Name":"Pickfair Community Center","Street":"10904 Pickfair Drive","City":"Austin","State":"TX","Zip":"78750","Formatted":"Pickfair Community Center\n10904 Pickfair Drive\nAustin, TX 78750","Schedule":"Tue, Nov 5: 7am - 7pm","Notes":null}},{"type":"Feature","geometry":{"type":"Point","coordinates":[-97.784168,30.42824]},"properties":{"Type":"Precinct 335","Name":"Canyon Vista Middle School","Street":"8455 Spicewood Springs Road","City":"Austin","State":"TX","Zip":"78759","Formatted":"Canyon Vista Middle School\n8455 Spicewood Springs Road\nAustin, TX 78759","Schedule":"Tue, Nov 5: 7am - 7pm","Notes":null}},{"type":"Feature","geometry":{"type":"Point","coordinates":[-97.798662,30.419984]},"properties":{"Type":"Precinct 336","Name":"Hallmark Baptist Church","Street":"9023 Old Lampasas Trail","City":"Austin","State":"TX","Zip":"78750","Formatted":"Hallmark Baptist Church\n9023 Old Lampasas Trail\nAustin, TX 78750","Schedule":"Tue, Nov 5: 7am - 7pm","Notes":null}},{"type":"Feature","geometry":{"type":"Point","coordinates":[-97.788902,30.375404]},"properties":{"Type":"Precinct 337","Name":"Lakewood Homeowners Association","Street":"7317 Lakewood Drive","City":"Austin","State":"TX","Zip":"78750","Formatted":"Lakewood Homeowners Association\n7317 Lakewood Drive\nAustin, TX 78750","Schedule":"Tue, Nov 5: 7am - 7pm","Notes":null}},{"type":"Feature","geometry":{"type":"Point","coordinates":[-97.866662,30.339343]},"properties":{"Type":"Precinct 338","Name":"Travis County WCID #18","Street":"1502 San Juan Drive","City":"Austin","State":"TX","Zip":"78733","Formatted":"Travis County WCID #18\n1502 San Juan Drive\nAustin, TX 78733","Schedule":"Tue, Nov 5: 7am - 7pm","Notes":null}},{"type":"Feature","geometry":{"type":"Point","coordinates":[-97.855077,30.236989]},"properties":{"Type":"Precinct 339","Name":"Western Hills Church of Christ","Street":"6211 Parkwood Drive","City":"Austin","State":"TX","Zip":"78735","Formatted":"Western Hills Church of Christ\n6211 Parkwood Drive\nAustin, TX 78735","Schedule":"Tue, Nov 5: 7am - 7pm","Notes":null}},{"type":"Feature","geometry":{"type":"Point","coordinates":[-97.774673,30.252849]},"properties":{"Type":"Precinct 340","Name":"Zilker Elementary School","Street":"1900 Bluebonnet Lane","City":"Austin","State":"TX","Zip":"78704","Formatted":"Zilker Elementary School\n1900 Bluebonnet Lane\nAustin, TX 78704","Schedule":"Tue, Nov 5: 7am - 7pm","Notes":"Combined precincts 332, 340, 340, 341"}},{"type":"Feature","geometry":{"type":"Point","coordinates":[-97.774673,30.252849]},"properties":{"Type":"Precinct 341","Name":"Zilker Elementary School","Street":"1900 Bluebonnet Lane","City":"Austin","State":"TX","Zip":"78704","Formatted":"Zilker Elementary School\n1900 Bluebonnet Lane\nAustin, TX 78704","Schedule":"Tue, Nov 5: 7am - 7pm","Notes":"Combined precincts 332, 340, 341, 341"}},{"type":"Feature","geometry":{"type":"Point","coordinates":[-97.783138,30.254174]},"properties":{"Type":"Precinct 342","Name":"Barton Hills Elementary School","Street":"2108 Barton Hills Drive","City":"Austin","State":"TX","Zip":"78704","Formatted":"Barton Hills Elementary School\n2108 Barton Hills Drive\nAustin, TX 78704","Schedule":"Tue, Nov 5: 7am - 7pm","Notes":null}},{"type":"Feature","geometry":{"type":"Point","coordinates":[-97.824894,30.436871]},"properties":{"Type":"Precinct 343","Name":"Canyon Creek Elementary School","Street":"10210 Ember Glen Drive","City":"Austin","State":"TX","Zip":"78726","Formatted":"Canyon Creek Elementary School\n10210 Ember Glen Drive\nAustin, TX 78726","Schedule":"Tue, Nov 5: 7am - 7pm","Notes":"Combined precincts 333, 343, 343"}},{"type":"Feature","geometry":{"type":"Point","coordinates":[-97.805808,30.210672]},"properties":{"Type":"Precinct 344","Name":"Cunningham Elementary School","Street":"2200 Berkeley Avenue","City":"Austin","State":"TX","Zip":"78745","Formatted":"Cunningham Elementary School\n2200 Berkeley Avenue\nAustin, TX 78745","Schedule":"Tue, Nov 5: 7am - 7pm","Notes":null}},{"type":"Feature","geometry":{"type":"Point","coordinates":[-97.7521,30.39879]},"properties":{"Type":"Precinct 345","Name":"Great Hills Baptist Church","Street":"10500 Jollyville Road","City":"Austin","State":"TX","Zip":"78759","Formatted":"Great Hills Baptist Church\n10500 Jollyville Road\nAustin, TX 78759","Schedule":"Tue, Nov 5: 7am - 7pm","Notes":"Combined precincts 305, 323, 345, 345"}},{"type":"Feature","geometry":{"type":"Point","coordinates":[-97.981294,30.362589]},"properties":{"Type":"Precinct 346","Name":"Lakeway Activity Center","Street":"105 Cross Creek Drive","City":"Lakeway","State":"TX","Zip":"78734","Formatted":"Lakeway Activity Center\n105 Cross Creek Drive\nLakeway, TX 78734","Schedule":"Tue, Nov 5: 7am - 7pm","Notes":"Combined precincts 306, 319, 346, 346"}},{"type":"Feature","geometry":{"type":"Point","coordinates":[-97.803774,30.270465]},"properties":{"Type":"Precinct 347","Name":"Hill Country Middle School","Street":"1300 Walsh Tarlton Lane","City":"Austin","State":"TX","Zip":"78746","Formatted":"Hill Country Middle School\n1300 Walsh Tarlton Lane\nAustin, TX 78746","Schedule":"Tue, Nov 5: 7am - 7pm","Notes":null}},{"type":"Feature","geometry":{"type":"Point","coordinates":[-97.88354,30.23149]},"properties":{"Type":"Precinct 349","Name":"ACC Pinnacle Campus","Street":"7748 Highway 290 West","City":"Austin","State":"TX","Zip":"78736","Formatted":"ACC Pinnacle Campus\n7748 Highway 290 West\nAustin, TX 78736","Schedule":"Tue, Nov 5: 7am - 7pm","Notes":null}},{"type":"Feature","geometry":{"type":"Point","coordinates":[-97.833724,30.188686]},"properties":{"Type":"Precinct 350","Name":"Cowan Elementary School","Street":"2817 Kentish DR","City":"Austin","State":"TX","Zip":"78748","Formatted":"Cowan Elementary School\n2817 Kentish DR\nAustin, TX 78748","Schedule":"Tue, Nov 5: 7am - 7pm","Notes":"Combined precincts 309, 350, 350"}},{"type":"Feature","geometry":{"type":"Point","coordinates":[-97.847993,30.184057]},"properties":{"Type":"Precinct 3500","Name":"Randalls Brodie and Slaughter","Street":"9911 Brodie Lane","City":"Austin","State":"TX","Zip":"78748","Formatted":"Randalls Brodie and Slaughter\n9911 Brodie Lane\nAustin, TX 78748","Schedule":"Tue, Nov 5: 7am - 7pm","Notes":null}},{"type":"Feature","geometry":{"type":"Point","coordinates":[-97.836277,30.22278]},"properties":{"Type":"Precinct 3510","Name":"Randalls South Mopac and William Cannon","Street":"6600 South Mopac Expressway","City":"Austin","State":"TX","Zip":"78749","Formatted":"Randalls South Mopac and William Cannon\n6600 South Mopac Expressway\nAustin, TX 78749","Schedule":"Tue, Nov 5: 7am - 7pm","Notes":null}},{"type":"Feature","geometry":{"type":"Point","coordinates":[-97.84149,30.23417]},"properties":{"Type":"Precinct 351","Name":"Small Middle School","Street":"4801 Monterey Oaks Boulevard","City":"Austin","State":"TX","Zip":"78749","Formatted":"Small Middle School\n4801 Monterey Oaks Boulevard\nAustin, TX 78749","Schedule":"Tue, Nov 5: 7am - 7pm","Notes":null}},{"type":"Feature","geometry":{"type":"Point","coordinates":[-97.834582,30.212073]},"properties":{"Type":"Precinct 352","Name":"Covington Middle School","Street":"3700 Convict Hill Road","City":"Austin","State":"TX","Zip":"78749","Formatted":"Covington Middle School\n3700 Convict Hill Road\nAustin, TX 78749","Schedule":"Tue, Nov 5: 7am - 7pm","Notes":"Combined precincts 352, 352, 358"}},{"type":"Feature","geometry":{"type":"Point","coordinates":[-97.827448,30.245949]},"properties":{"Type":"Precinct 354","Name":"Travis Country Office (H.O.A.)","Street":"4504 Travis Country Circle","City":"Austin","State":"TX","Zip":"78735","Formatted":"Travis Country Office (H.O.A.)\n4504 Travis Country Circle\nAustin, TX 78735","Schedule":"Tue, Nov 5: 7am - 7pm","Notes":null}},{"type":"Feature","geometry":{"type":"Point","coordinates":[-97.788588,30.275682]},"properties":{"Type":"Precinct 356","Name":"Rollingwood Municipal Building","Street":"403 Nixon Drive","City":"Rollingwood","State":"TX","Zip":"78746","Formatted":"Rollingwood Municipal Building\n403 Nixon Drive\nRollingwood, TX 78746","Schedule":"Tue, Nov 5: 7am - 7pm","Notes":"Combined precincts 307, 356, 356"}},{"type":"Feature","geometry":{"type":"Point","coordinates":[-97.871361,30.315636]},"properties":{"Type":"Precinct 357","Name":"Laura's Library","Street":"9411 Bee Cave Road","City":"Austin","State":"TX","Zip":"78733","Formatted":"Laura's Library\n9411 Bee Cave Road\nAustin, TX 78733","Schedule":"Tue, Nov 5: 7am - 7pm","Notes":"Combined precincts 318, 330, 357, 357"}},{"type":"Feature","geometry":{"type":"Point","coordinates":[-97.834582,30.212073]},"properties":{"Type":"Precinct 358","Name":"Covington Middle School","Street":"3700 Convict Hill Road","City":"Austin","State":"TX","Zip":"78749","Formatted":"Covington Middle School\n3700 Convict Hill Road\nAustin, TX 78749","Schedule":"Tue, Nov 5: 7am - 7pm","Notes":"Combined precincts 352, 358, 358"}},{"type":"Feature","geometry":{"type":"Point","coordinates":[-97.946591,30.370589]},"properties":{"Type":"Precinct 359","Name":"Lake Travis ISD Educational Development Ctr.","Street":"607 RR 620 North (Enter off of Kollmeyer Dr)","City":"Austin","State":"TX","Zip":"78734","Formatted":"Lake Travis ISD Educational Development Ctr.\n607 RR 620 North (Enter off of Kollmeyer Dr)\nAustin, TX 78734","Schedule":"Tue, Nov 5: 7am - 7pm","Notes":null}},{"type":"Feature","geometry":{"type":"Point","coordinates":[-97.85831,30.18745]},"properties":{"Type":"Precinct 360","Name":"Bowie High School","Street":"4103 West Slaughter Lane","City":"Austin","State":"TX","Zip":"78749","Formatted":"Bowie High School\n4103 West Slaughter Lane\nAustin, TX 78749","Schedule":"Tue, Nov 5: 7am - 7pm","Notes":null}},{"type":"Feature","geometry":{"type":"Point","coordinates":[-97.919694,30.239456]},"properties":{"Type":"Precinct 361","Name":"Oak Hill Fire Dept. Station #301","Street":"9211 Circle Drive","City":"Austin","State":"TX","Zip":"78736","Formatted":"Oak Hill Fire Dept. Station #301\n9211 Circle Drive\nAustin, TX 78736","Schedule":"Tue, Nov 5: 7am - 7pm","Notes":null}},{"type":"Feature","geometry":{"type":"Point","coordinates":[-97.854999,30.217702]},"properties":{"Type":"Precinct 362","Name":"Will Hampton Branch Public Library","Street":"5125 Convict Hill Road","City":"Austin","State":"TX","Zip":"78749","Formatted":"Will Hampton Branch Public Library\n5125 Convict Hill Road\nAustin, TX 78749","Schedule":"Tue, Nov 5: 7am - 7pm","Notes":null}},{"type":"Feature","geometry":{"type":"Point","coordinates":[-97.851888,30.225441]},"properties":{"Type":"Precinct 363","Name":"Shepherd of the Hills Presbyterian Church","Street":"5226 West William Cannon Drive","City":"Austin","State":"TX","Zip":"78749","Formatted":"Shepherd of the Hills Presbyterian Church\n5226 West William Cannon Drive\nAustin, TX 78749","Schedule":"Tue, Nov 5: 7am - 7pm","Notes":null}},{"type":"Feature","geometry":{"type":"Point","coordinates":[-97.798812,30.275376]},"properties":{"Type":"Precinct 364","Name":"Randalls Flagship at West Lake Hills","Street":"3300 Bee Cave Road","City":"West Lake Hills","State":"TX","Zip":"78746","Formatted":"Randalls Flagship at West Lake Hills\n3300 Bee Cave Road\nWest Lake Hills, TX 78746","Schedule":"Tue, Nov 5: 7am - 7pm","Notes":null}},{"type":"Feature","geometry":{"type":"Point","coordinates":[-97.893596,30.251449]},"properties":{"Type":"Precinct 365","Name":"West Rural Community Center","Street":"8656 Highway 71 West #A","City":"Austin","State":"TX","Zip":"78735","Formatted":"West Rural Community Center\n8656 Highway 71 West #A\nAustin, TX 78735","Schedule":"Tue, Nov 5: 7am - 7pm","Notes":null}},{"type":"Feature","geometry":{"type":"Point","coordinates":[-97.87819,30.21111]},"properties":{"Type":"Precinct 366","Name":"Mills Elementary School","Street":"6201 Davis Lane","City":"Austin","State":"TX","Zip":"78749","Formatted":"Mills Elementary School\n6201 Davis Lane\nAustin, TX 78749","Schedule":"Tue, Nov 5: 7am - 7pm","Notes":null}},{"type":"Feature","geometry":{"type":"Point","coordinates":[-97.906573,30.195113]},"properties":{"Type":"Precinct 367","Name":"Clayton Elementary School","Street":"7525 La Crosse Avenue","City":"Austin","State":"TX","Zip":"78739","Formatted":"Clayton Elementary School\n7525 La Crosse Avenue\nAustin, TX 78739","Schedule":"Tue, Nov 5: 7am - 7pm","Notes":null}},{"type":"Feature","geometry":{"type":"Point","coordinates":[-97.939939,30.308171]},"properties":{"Type":"Precinct 368","Name":"Bee Cave City Hall","Street":"4000 Galleria Parkway","City":"Bee Cave","State":"TX","Zip":"78738","Formatted":"Bee Cave City Hall\n4000 Galleria Parkway\nBee Cave, TX 78738","Schedule":"Tue, Nov 5: 7am - 7pm","Notes":"Combined precincts 324, 368, 368"}},{"type":"Feature","geometry":{"type":"Point","coordinates":[-97.881156,30.511095]},"properties":{"Type":"Precinct 369","Name":"Christ Episcopal Church","Street":"3520 West Whitestone Boulevard","City":"Cedar Park","State":"TX","Zip":"78613","Formatted":"Christ Episcopal Church\n3520 West Whitestone Boulevard\nCedar Park, TX 78613","Schedule":"Tue, Nov 5: 7am - 7pm","Notes":null}},{"type":"Feature","geometry":{"type":"Point","coordinates":[-97.949408,30.572025]},"properties":{"Type":"Precinct 370","Name":"Round Mountain Community Center","Street":"14340 Round Mountain Road","City":"Leander","State":"TX","Zip":"78641","Formatted":"Round Mountain Community Center\n14340 Round Mountain Road\nLeander, TX 78641","Schedule":"Tue, Nov 5: 7am - 7pm","Notes":null}},{"type":"Feature","geometry":{"type":"Point","coordinates":[-97.97788,30.480356]},"properties":{"Type":"Precinct 371","Name":"Lago Vista High School","Street":"8039 Bar-K Ranch Road","City":"Lago Vista","State":"TX","Zip":"78645","Formatted":"Lago Vista High School\n8039 Bar-K Ranch Road\nLago Vista, TX 78645","Schedule":"Tue, Nov 5: 7am - 7pm","Notes":null}},{"type":"Feature","geometry":{"type":"Point","coordinates":[-97.923331,30.492986]},"properties":{"Type":"Precinct 372","Name":"Community Center at Jonestown","Street":"18649 FM 1431, Suite 6A","City":"Jonestown","State":"TX","Zip":"78645","Formatted":"Community Center at Jonestown\n18649 FM 1431, Suite 6A\nJonestown, TX 78645","Schedule":"Tue, Nov 5: 7am - 7pm","Notes":null}},{"type":"Feature","geometry":{"type":"Point","coordinates":[-97.987372,30.453007]},"properties":{"Type":"Precinct 373","Name":"Lago Vista City Hall","Street":"5803 Thunderbird Street","City":"Lago Vista","State":"TX","Zip":"78645","Formatted":"Lago Vista City Hall\n5803 Thunderbird Street\nLago Vista, TX 78645","Schedule":"Tue, Nov 5: 7am - 7pm","Notes":null}},{"type":"Feature","geometry":{"type":"Point","coordinates":[-97.853111,30.482584]},"properties":{"Type":"Precinct 374","Name":"Deer Creek Elementary School","Street":"2420 Zeppelin Drive","City":"Cedar Park","State":"TX","Zip":"78613","Formatted":"Deer Creek Elementary School\n2420 Zeppelin Drive\nCedar Park, TX 78613","Schedule":"Tue, Nov 5: 7am - 7pm","Notes":null}},{"type":"Feature","geometry":{"type":"Point","coordinates":[-97.90388,30.43569]},"properties":{"Type":"Precinct 375","Name":"Volente Fire Department","Street":"15406 FM 2769","City":"Volente","State":"TX","Zip":"78641","Formatted":"Volente Fire Department\n15406 FM 2769\nVolente, TX 78641","Schedule":"Tue, Nov 5: 7am - 7pm","Notes":null}},{"type":"Feature","geometry":{"type":"Point","coordinates":[-97.613418,30.176036]},"properties":{"Type":"Precinct 401","Name":"Del Valle ISD Administration Building","Street":"5301 Ross Road","City":"Del Valle","State":"TX","Zip":"78617","Formatted":"Del Valle ISD Administration Building\n5301 Ross Road\nDel Valle, TX 78617","Schedule":"Tue, Nov 5: 7am - 7pm","Notes":null}},{"type":"Feature","geometry":{"type":"Point","coordinates":[-97.638577,30.123925]},"properties":{"Type":"Precinct 402","Name":"Elroy Community Library","Street":"13512 FM 812","City":"Del Valle","State":"TX","Zip":"78617","Formatted":"Elroy Community Library\n13512 FM 812\nDel Valle, TX 78617","Schedule":"Tue, Nov 5: 7am - 7pm","Notes":null}},{"type":"Feature","geometry":{"type":"Point","coordinates":[-97.720942,30.091023]},"properties":{"Type":"Precinct 403","Name":"Creedmoor Elementary School","Street":"5604 FM 1327","City":"Creedmoor","State":"TX","Zip":"78610","Formatted":"Creedmoor Elementary School\n5604 FM 1327\nCreedmoor, TX 78610","Schedule":"Tue, Nov 5: 7am - 7pm","Notes":null}},{"type":"Feature","geometry":{"type":"Point","coordinates":[-97.751992,30.156149]},"properties":{"Type":"Precinct 404","Name":"Blazier Elementary School","Street":"8601 Vertex Boulevard","City":"Austin","State":"TX","Zip":"78744","Formatted":"Blazier Elementary School\n8601 Vertex Boulevard\nAustin, TX 78744","Schedule":"Tue, Nov 5: 7am - 7pm","Notes":null}},{"type":"Feature","geometry":{"type":"Point","coordinates":[-97.712574,30.190467]},"properties":{"Type":"Precinct 405","Name":"Ojeda Middle School","Street":"4900 McKinney Falls Parkway","City":"Austin","State":"TX","Zip":"78744","Formatted":"Ojeda Middle School\n4900 McKinney Falls Parkway\nAustin, TX 78744","Schedule":"Tue, Nov 5: 7am - 7pm","Notes":null}},{"type":"Feature","geometry":{"type":"Point","coordinates":[-97.798171,30.129774]},"properties":{"Type":"Precinct 406","Name":"St. Alban's Episcopal Church","Street":"11819 IH-35 South","City":"Austin","State":"TX","Zip":"78747","Formatted":"St. Alban's Episcopal Church\n11819 IH-35 South\nAustin, TX 78747","Schedule":"Tue, Nov 5: 7am - 7pm","Notes":"Combined precincts 406, 406, 417"}},{"type":"Feature","geometry":{"type":"Point","coordinates":[-97.642107,30.198738]},"properties":{"Type":"Precinct 407","Name":"South Rural Community Center","Street":"3518 South FM 973","City":"Del Valle","State":"TX","Zip":"78617","Formatted":"South Rural Community Center\n3518 South FM 973\nDel Valle, TX 78617","Schedule":"Tue, Nov 5: 7am - 7pm","Notes":null}},{"type":"Feature","geometry":{"type":"Point","coordinates":[-97.818639,30.183882]},"properties":{"Type":"Precinct 408","Name":"Southwest Church of Christ","Street":"8900 Manchaca Road","City":"Austin","State":"TX","Zip":"78748","Formatted":"Southwest Church of Christ\n8900 Manchaca Road\nAustin, TX 78748","Schedule":"Tue, Nov 5: 7am - 7pm","Notes":"Combined precincts 408, 408, 435"}},{"type":"Feature","geometry":{"type":"Point","coordinates":[-97.76862,30.24139]},"properties":{"Type":"Precinct 409","Name":"South Austin Recreation Center","Street":"1100 Cumberland Road","City":"Austin","State":"TX","Zip":"78704","Formatted":"South Austin Recreation Center\n1100 Cumberland Road\nAustin, TX 78704","Schedule":"Tue, Nov 5: 7am - 7pm","Notes":"Combined precincts 409, 409, 424"}},{"type":"Feature","geometry":{"type":"Point","coordinates":[-97.774978,30.197292]},"properties":{"Type":"Precinct 410","Name":"Science & Health Resource Center","Street":"305 North Bluff Drive","City":"Austin","State":"TX","Zip":"78745","Formatted":"Science & Health Resource Center\n305 North Bluff Drive\nAustin, TX 78745","Schedule":"Tue, Nov 5: 7am - 7pm","Notes":null}},{"type":"Feature","geometry":{"type":"Point","coordinates":[-97.801489,30.148542]},"properties":{"Type":"Precinct 411","Name":"Akins High School","Street":"10701 South 1st Street","City":"Austin","State":"TX","Zip":"78748","Formatted":"Akins High School\n10701 South 1st Street\nAustin, TX 78748","Schedule":"Tue, Nov 5: 7am - 7pm","Notes":"Combined precincts 411, 411, 416"}},{"type":"Feature","geometry":{"type":"Point","coordinates":[-97.790074,30.229437]},"properties":{"Type":"Precinct 412","Name":"Randalls Ben White","Street":"2025 West Ben White Boulevard","City":"Austin","State":"TX","Zip":"78704","Formatted":"Randalls Ben White\n2025 West Ben White Boulevard\nAustin, TX 78704","Schedule":"Tue, Nov 5: 7am - 7pm","Notes":"Combined precincts 412, 412, 454"}},{"type":"Feature","geometry":{"type":"Point","coordinates":[-97.76328,30.18201]},"properties":{"Type":"Precinct 413","Name":"Langford Elementary School","Street":"2206 Blue Meadow Drive","City":"Austin","State":"TX","Zip":"78744","Formatted":"Langford Elementary School\n2206 Blue Meadow Drive\nAustin, TX 78744","Schedule":"Tue, Nov 5: 7am - 7pm","Notes":"Combined precincts 413, 413, 418, 448"}},{"type":"Feature","geometry":{"type":"Point","coordinates":[-97.81739,30.17055]},"properties":{"Type":"Precinct 414","Name":"Texas Oaks Baptist Church","Street":"9910 Bilbrook Place","City":"Austin","State":"TX","Zip":"78748","Formatted":"Texas Oaks Baptist Church\n9910 Bilbrook Place\nAustin, TX 78748","Schedule":"Tue, Nov 5: 7am - 7pm","Notes":null}},{"type":"Feature","geometry":{"type":"Point","coordinates":[-97.814841,30.176994]},"properties":{"Type":"Precinct 415","Name":"Casey Elementary School","Street":"9400 Texas Oaks Drive","City":"Austin","State":"TX","Zip":"78748","Formatted":"Casey Elementary School\n9400 Texas Oaks Drive\nAustin, TX 78748","Schedule":"Tue, Nov 5: 7am - 7pm","Notes":null}},{"type":"Feature","geometry":{"type":"Point","coordinates":[-97.801489,30.148542]},"properties":{"Type":"Precinct 416","Name":"Akins High School","Street":"10701 South 1st Street","City":"Austin","State":"TX","Zip":"78748","Formatted":"Akins High School\n10701 South 1st Street\nAustin, TX 78748","Schedule":"Tue, Nov 5: 7am - 7pm","Notes":"Combined precincts 411, 416, 416"}},{"type":"Feature","geometry":{"type":"Point","coordinates":[-97.798171,30.129774]},"properties":{"Type":"Precinct 417","Name":"St. Alban's Episcopal Church","Street":"11819 IH-35 South","City":"Austin","State":"TX","Zip":"78747","Formatted":"St. Alban's Episcopal Church\n11819 IH-35 South\nAustin, TX 78747","Schedule":"Tue, Nov 5: 7am - 7pm","Notes":"Combined precincts 406, 417, 417"}},{"type":"Feature","geometry":{"type":"Point","coordinates":[-97.76328,30.18201]},"properties":{"Type":"Precinct 418","Name":"Langford Elementary School","Street":"2206 Blue Meadow Drive","City":"Austin","State":"TX","Zip":"78744","Formatted":"Langford Elementary School\n2206 Blue Meadow Drive\nAustin, TX 78744","Schedule":"Tue, Nov 5: 7am - 7pm","Notes":"Combined precincts 413, 418, 418, 448"}},{"type":"Feature","geometry":{"type":"Point","coordinates":[-97.789521,30.205599]},"properties":{"Type":"Precinct 419","Name":"Odom Elementary School","Street":"1010 Turtle Creek Boulevard","City":"Austin","State":"TX","Zip":"78745","Formatted":"Odom Elementary School\n1010 Turtle Creek Boulevard\nAustin, TX 78745","Schedule":"Tue, Nov 5: 7am - 7pm","Notes":"Combined precincts 419, 419, 447"}},{"type":"Feature","geometry":{"type":"Point","coordinates":[-97.73481,30.23332]},"properties":{"Type":"Precinct 420","Name":"Parker Lane United Methodist Church","Street":"2105 Parker Lane","City":"Austin","State":"TX","Zip":"78741","Formatted":"Parker Lane United Methodist Church\n2105 Parker Lane\nAustin, TX 78741","Schedule":"Tue, Nov 5: 7am - 7pm","Notes":null}},{"type":"Feature","geometry":{"type":"Point","coordinates":[-97.74946,30.248493]},"properties":{"Type":"Precinct 421","Name":"Congress Avenue Baptist Church","Street":"1511 South Congress Avenue","City":"Austin","State":"TX","Zip":"78704","Formatted":"Congress Avenue Baptist Church\n1511 South Congress Avenue\nAustin, TX 78704","Schedule":"Tue, Nov 5: 7am - 7pm","Notes":null}},{"type":"Feature","geometry":{"type":"Point","coordinates":[-97.749948,30.24424]},"properties":{"Type":"Precinct 422","Name":"Fulmore Middle School","Street":"201 East Mary Street","City":"Austin","State":"TX","Zip":"78704","Formatted":"Fulmore Middle School\n201 East Mary Street\nAustin, TX 78704","Schedule":"Tue, Nov 5: 7am - 7pm","Notes":null}},{"type":"Feature","geometry":{"type":"Point","coordinates":[-97.700129,30.232282]},"properties":{"Type":"Precinct 423","Name":"Montopolis Recreation Center","Street":"1200 Montopolis Drive","City":"Austin","State":"TX","Zip":"78741","Formatted":"Montopolis Recreation Center\n1200 Montopolis Drive\nAustin, TX 78741","Schedule":"Tue, Nov 5: 7am - 7pm","Notes":null}},{"type":"Feature","geometry":{"type":"Point","coordinates":[-97.755452,30.239642]},"properties":{"Type":"Precinct 4240","Name":"HEB South Congress","Street":"2400 South Congress Avenue","City":"Austin","State":"TX","Zip":"78704","Formatted":"HEB South Congress\n2400 South Congress Avenue\nAustin, TX 78704","Schedule":"Tue, Nov 5: 7am - 7pm","Notes":null}},{"type":"Feature","geometry":{"type":"Point","coordinates":[-97.76862,30.24139]},"properties":{"Type":"Precinct 424","Name":"South Austin Recreation Center","Street":"1100 Cumberland Road","City":"Austin","State":"TX","Zip":"78704","Formatted":"South Austin Recreation Center\n1100 Cumberland Road\nAustin, TX 78704","Schedule":"Tue, Nov 5: 7am - 7pm","Notes":"Combined precincts 409, 424, 424"}},{"type":"Feature","geometry":{"type":"Point","coordinates":[-97.773213,30.221686]},"properties":{"Type":"Precinct 425","Name":"St. Elmo Elementary School","Street":"600 West St. Elmo Road","City":"Austin","State":"TX","Zip":"78745","Formatted":"St. Elmo Elementary School\n600 West St. Elmo Road\nAustin, TX 78745","Schedule":"Tue, Nov 5: 7am - 7pm","Notes":"Combined precincts 425, 425, 446"}},{"type":"Feature","geometry":{"type":"Point","coordinates":[-97.698573,30.264386]},"properties":{"Type":"Precinct 426","Name":"Govalle Elementary School","Street":"3601 Govalle Avenue","City":"Austin","State":"TX","Zip":"78702","Formatted":"Govalle Elementary School\n3601 Govalle Avenue\nAustin, TX 78702","Schedule":"Tue, Nov 5: 7am - 7pm","Notes":"Combined precincts 426, 426, 427, 436, 444"}},{"type":"Feature","geometry":{"type":"Point","coordinates":[-97.711635,30.261812]},"properties":{"Type":"Precinct 4260","Name":"Parque Zaragoza Recreation Center","Street":"2608 Gonzales Street","City":"Austin","State":"TX","Zip":"78702","Formatted":"Parque Zaragoza Recreation Center\n2608 Gonzales Street\nAustin, TX 78702","Schedule":"Tue, Nov 5: 7am - 7pm","Notes":null}},{"type":"Feature","geometry":{"type":"Point","coordinates":[-97.698573,30.264386]},"properties":{"Type":"Precinct 427","Name":"Govalle Elementary School","Street":"3601 Govalle Avenue","City":"Austin","State":"TX","Zip":"78702","Formatted":"Govalle Elementary School\n3601 Govalle Avenue\nAustin, TX 78702","Schedule":"Tue, Nov 5: 7am - 7pm","Notes":"Combined precincts 426, 427, 427, 436, 444"}},{"type":"Feature","geometry":{"type":"Point","coordinates":[-97.740169,30.25814]},"properties":{"Type":"Precinct 428","Name":"Mexican American Cultural Center (MACC)","Street":"600 River Street","City":"Austin","State":"TX","Zip":"78701","Formatted":"Mexican American Cultural Center (MACC)\n600 River Street\nAustin, TX 78701","Schedule":"Tue, Nov 5: 7am - 7pm","Notes":null}},{"type":"Feature","geometry":{"type":"Point","coordinates":[-97.706995,30.229915]},"properties":{"Type":"Precinct 429","Name":"Dan Ruiz Branch Public Library","Street":"1600 Grove Boulevard","City":"Austin","State":"TX","Zip":"78741","Formatted":"Dan Ruiz Branch Public Library\n1600 Grove Boulevard\nAustin, TX 78741","Schedule":"Tue, Nov 5: 7am - 7pm","Notes":null}},{"type":"Feature","geometry":{"type":"Point","coordinates":[-97.789119,30.236827]},"properties":{"Type":"Precinct 430","Name":"Ann Richards School","Street":"2206 Prather Lane (Enter off of Victory Lane)","City":"Austin","State":"TX","Zip":"78704","Formatted":"Ann Richards School\n2206 Prather Lane (Enter off of Victory Lane)\nAustin, TX 78704","Schedule":"Tue, Nov 5: 7am - 7pm","Notes":"Combined precincts 430, 430, 461"}},{"type":"Feature","geometry":{"type":"Point","coordinates":[-97.713309,30.227327]},"properties":{"Type":"Precinct 431","Name":"Baty Elementary School","Street":"2101 Faro Drive","City":"Austin","State":"TX","Zip":"78741","Formatted":"Baty Elementary School\n2101 Faro Drive\nAustin, TX 78741","Schedule":"Tue, Nov 5: 7am - 7pm","Notes":null}},{"type":"Feature","geometry":{"type":"Point","coordinates":[-97.73539,30.2579]},"properties":{"Type":"Precinct 432","Name":"Sanchez Elementary School","Street":"73 San Marcos Street","City":"Austin","State":"TX","Zip":"78702","Formatted":"Sanchez Elementary School\n73 San Marcos Street\nAustin, TX 78702","Schedule":"Tue, Nov 5: 7am - 7pm","Notes":"Combined precincts 432, 432, 434, 438"}},{"type":"Feature","geometry":{"type":"Point","coordinates":[-97.743269,30.234034]},"properties":{"Type":"Precinct 433","Name":"Travis High School","Street":"1211 East Oltorf Street","City":"Austin","State":"TX","Zip":"78704","Formatted":"Travis High School\n1211 East Oltorf Street\nAustin, TX 78704","Schedule":"Tue, Nov 5: 7am - 7pm","Notes":"Combined precincts 433, 433, 442"}},{"type":"Feature","geometry":{"type":"Point","coordinates":[-97.73539,30.2579]},"properties":{"Type":"Precinct 434","Name":"Sanchez Elementary School","Street":"73 San Marcos Street","City":"Austin","State":"TX","Zip":"78702","Formatted":"Sanchez Elementary School\n73 San Marcos Street\nAustin, TX 78702","Schedule":"Tue, Nov 5: 7am - 7pm","Notes":"Combined precincts 432, 434, 434, 438"}},{"type":"Feature","geometry":{"type":"Point","coordinates":[-97.818639,30.183882]},"properties":{"Type":"Precinct 435","Name":"Southwest Church of Christ","Street":"8900 Manchaca Road","City":"Austin","State":"TX","Zip":"78748","Formatted":"Southwest Church of Christ\n8900 Manchaca Road\nAustin, TX 78748","Schedule":"Tue, Nov 5: 7am - 7pm","Notes":"Combined precincts 408, 435, 435"}},{"type":"Feature","geometry":{"type":"Point","coordinates":[-97.698573,30.264386]},"properties":{"Type":"Precinct 436","Name":"Govalle Elementary School","Street":"3601 Govalle Avenue","City":"Austin","State":"TX","Zip":"78702","Formatted":"Govalle Elementary School\n3601 Govalle Avenue\nAustin, TX 78702","Schedule":"Tue, Nov 5: 7am - 7pm","Notes":"Combined precincts 426, 427, 436, 436, 444"}},{"type":"Feature","geometry":{"type":"Point","coordinates":[-97.76227,30.248734]},"properties":{"Type":"Precinct 437","Name":"Twin Oaks Branch Library","Street":"1800 South 5th Street","City":"Austin","State":"TX","Zip":"78704","Formatted":"Twin Oaks Branch Library\n1800 South 5th Street\nAustin, TX 78704","Schedule":"Tue, Nov 5: 7am - 7pm","Notes":null}},{"type":"Feature","geometry":{"type":"Point","coordinates":[-97.73539,30.2579]},"properties":{"Type":"Precinct 438","Name":"Sanchez Elementary School","Street":"73 San Marcos Street","City":"Austin","State":"TX","Zip":"78702","Formatted":"Sanchez Elementary School\n73 San Marcos Street\nAustin, TX 78702","Schedule":"Tue, Nov 5: 7am - 7pm","Notes":"Combined precincts 432, 434, 438, 438"}},{"type":"Feature","geometry":{"type":"Point","coordinates":[-97.720878,30.258039]},"properties":{"Type":"Precinct 439","Name":"Cantu/Pan Am Recreation Center","Street":"2100 East 3rd Street","City":"Austin","State":"TX","Zip":"78702","Formatted":"Cantu/Pan Am Recreation Center\n2100 East 3rd Street\nAustin, TX 78702","Schedule":"Tue, Nov 5: 7am - 7pm","Notes":null}},{"type":"Feature","geometry":{"type":"Point","coordinates":[-97.74335,30.21825]},"properties":{"Type":"Precinct 440","Name":"CityView at the Park Senior Apts","Street":"2000 Woodward Street","City":"Austin","State":"TX","Zip":"78741","Formatted":"CityView at the Park Senior Apts\n2000 Woodward Street\nAustin, TX 78741","Schedule":"Tue, Nov 5: 7am - 7pm","Notes":null}},{"type":"Feature","geometry":{"type":"Point","coordinates":[-97.76433,30.20035]},"properties":{"Type":"Precinct 4410","Name":"Fiesta Mart Stassney","Street":"5510 South IH 35","City":"Austin","State":"TX","Zip":"78745","Formatted":"Fiesta Mart Stassney\n5510 South IH 35\nAustin, TX 78745","Schedule":"Tue, Nov 5: 7am - 7pm","Notes":null}},{"type":"Feature","geometry":{"type":"Point","coordinates":[-97.76793,30.22434]},"properties":{"Type":"Precinct 441","Name":"St. John's Lutheran Church","Street":"409 West Ben White Boulevard","City":"Austin","State":"TX","Zip":"78704","Formatted":"St. John's Lutheran Church\n409 West Ben White Boulevard\nAustin, TX 78704","Schedule":"Tue, Nov 5: 7am - 7pm","Notes":null}},{"type":"Feature","geometry":{"type":"Point","coordinates":[-97.743269,30.234034]},"properties":{"Type":"Precinct 442","Name":"Travis High School","Street":"1211 East Oltorf Street","City":"Austin","State":"TX","Zip":"78704","Formatted":"Travis High School\n1211 East Oltorf Street\nAustin, TX 78704","Schedule":"Tue, Nov 5: 7am - 7pm","Notes":"Combined precincts 433, 442, 442"}},{"type":"Feature","geometry":{"type":"Point","coordinates":[-97.743655,30.188102]},"properties":{"Type":"Precinct 443","Name":"Mendez Middle School","Street":"5106 Village Square","City":"Austin","State":"TX","Zip":"78744","Formatted":"Mendez Middle School\n5106 Village Square\nAustin, TX 78744","Schedule":"Tue, Nov 5: 7am - 7pm","Notes":null}},{"type":"Feature","geometry":{"type":"Point","coordinates":[-97.698573,30.264386]},"properties":{"Type":"Precinct 444","Name":"Govalle Elementary School","Street":"3601 Govalle Avenue","City":"Austin","State":"TX","Zip":"78702","Formatted":"Govalle Elementary School\n3601 Govalle Avenue\nAustin, TX 78702","Schedule":"Tue, Nov 5: 7am - 7pm","Notes":"Combined precincts 426, 427, 436, 444, 444"}},{"type":"Feature","geometry":{"type":"Point","coordinates":[-97.773213,30.221686]},"properties":{"Type":"Precinct 446","Name":"St. Elmo Elementary School","Street":"600 West St. Elmo Road","City":"Austin","State":"TX","Zip":"78745","Formatted":"St. Elmo Elementary School\n600 West St. Elmo Road\nAustin, TX 78745","Schedule":"Tue, Nov 5: 7am - 7pm","Notes":"Combined precincts 425, 446, 446"}},{"type":"Feature","geometry":{"type":"Point","coordinates":[-97.789521,30.205599]},"properties":{"Type":"Precinct 447","Name":"Odom Elementary School","Street":"1010 Turtle Creek Boulevard","City":"Austin","State":"TX","Zip":"78745","Formatted":"Odom Elementary School\n1010 Turtle Creek Boulevard\nAustin, TX 78745","Schedule":"Tue, Nov 5: 7am - 7pm","Notes":"Combined precincts 419, 447, 447"}},{"type":"Feature","geometry":{"type":"Point","coordinates":[-97.76328,30.18201]},"properties":{"Type":"Precinct 448","Name":"Langford Elementary School","Street":"2206 Blue Meadow Drive","City":"Austin","State":"TX","Zip":"78744","Formatted":"Langford Elementary School\n2206 Blue Meadow Drive\nAustin, TX 78744","Schedule":"Tue, Nov 5: 7am - 7pm","Notes":"Combined precincts 413, 418, 448, 448"}},{"type":"Feature","geometry":{"type":"Point","coordinates":[-97.74195,30.187583]},"properties":{"Type":"Precinct 450","Name":"Southeast Branch Public Library","Street":"5803 Nuckols Crossing Road","City":"Austin","State":"TX","Zip":"78744","Formatted":"Southeast Branch Public Library\n5803 Nuckols Crossing Road\nAustin, TX 78744","Schedule":"Tue, Nov 5: 7am - 7pm","Notes":null}},{"type":"Feature","geometry":{"type":"Point","coordinates":[-97.7873,30.19392]},"properties":{"Type":"Precinct 451","Name":"Bedichek Middle School","Street":"6800 Bill Hughes Road","City":"Austin","State":"TX","Zip":"78745","Formatted":"Bedichek Middle School\n6800 Bill Hughes Road\nAustin, TX 78745","Schedule":"Tue, Nov 5: 7am - 7pm","Notes":null}},{"type":"Feature","geometry":{"type":"Point","coordinates":[-97.75495,30.197837]},"properties":{"Type":"Precinct 452","Name":"Houston Elementary School","Street":"5409 Ponciana Drive","City":"Austin","State":"TX","Zip":"78744","Formatted":"Houston Elementary School\n5409 Ponciana Drive\nAustin, TX 78744","Schedule":"Tue, Nov 5: 7am - 7pm","Notes":null}},{"type":"Feature","geometry":{"type":"Point","coordinates":[-97.790074,30.229437]},"properties":{"Type":"Precinct 454","Name":"Randalls Ben White","Street":"2025 West Ben White Boulevard","City":"Austin","State":"TX","Zip":"78704","Formatted":"Randalls Ben White\n2025 West Ben White Boulevard\nAustin, TX 78704","Schedule":"Tue, Nov 5: 7am - 7pm","Notes":"Combined precincts 412, 454, 454"}},{"type":"Feature","geometry":{"type":"Point","coordinates":[-97.808672,30.199286]},"properties":{"Type":"Precinct 458","Name":"Mockingbird Post Office","Street":"7310 Manchaca Road","City":"Austin","State":"TX","Zip":"78745","Formatted":"Mockingbird Post Office\n7310 Manchaca Road\nAustin, TX 78745","Schedule":"Tue, Nov 5: 7am - 7pm","Notes":null}},{"type":"Feature","geometry":{"type":"Point","coordinates":[-97.796219,30.215365]},"properties":{"Type":"Precinct 460","Name":"ACC South Austin Campus","Street":"1820 West Stassney Lane","City":"Austin","State":"TX","Zip":"78745","Formatted":"ACC South Austin Campus\n1820 West Stassney Lane\nAustin, TX 78745","Schedule":"Tue, Nov 5: 7am - 7pm","Notes":null}},{"type":"Feature","geometry":{"type":"Point","coordinates":[-97.789119,30.236827]},"properties":{"Type":"Precinct 461","Name":"Ann Richards School","Street":"2206 Prather Lane (Enter off of Victory Lane)","City":"Austin","State":"TX","Zip":"78704","Formatted":"Ann Richards School\n2206 Prather Lane (Enter off of Victory Lane)\nAustin, TX 78704","Schedule":"Tue, Nov 5: 7am - 7pm","Notes":"Combined precincts 430, 461, 461"}},{"type":"Feature","geometry":{"type":"Point","coordinates":[-97.791506,30.18116]},"properties":{"Type":"Precinct 463","Name":"Williams Elementary School","Street":"500 Mairo Street","City":"Austin","State":"TX","Zip":"78748","Formatted":"Williams Elementary School\n500 Mairo Street\nAustin, TX 78748","Schedule":"Tue, Nov 5: 7am - 7pm","Notes":null}},{"type":"Feature","geometry":{"type":"Point","coordinates":[-97.738248,30.35824]},"properties":{"Type":"Early Voting Location","Name":"Ben Hur Shrine Center","Street":"7811 Rockwood Lane","City":"Austin","State":"TX","Zip":"78757","Formatted":"Ben Hur Shrine Center\n7811 Rockwood Lane\nAustin, TX 78757","Schedule":"Mon, Oct 21 - Sat, Oct 26: 7am - 7pm\nSun, Oct 27: noon - 6pm\nMon, Oct 28 - Fri, Nov 1: 7am - 7pm","Notes":null}},{"type":"Feature","geometry":{"type":"Point","coordinates":[-97.72414,30.27017]},"properties":{"Type":"Early Voting Location","Name":"Carver Library and Museum Complex","Street":"1165 Angelina  Street","City":"Austin","State":"TX","Zip":"78702","Formatted":"Carver Library and Museum Complex\n1165 Angelina  Street\nAustin, TX 78702","Schedule":"Mon, Oct 21 - Wed, Oct 23: 10am - 5:30pm\nThu, Oct 24: 10am - 7pm\nFri, Oct 25 - Sat, Oct 26: 10am - 4:30pm\nSun, Oct 27: closed\nMon, Oct 28 - Wed, Oct 30: 10am - 5:30pm\nThu, Oct 31: 10am - 7pm\nFri, Nov 1: 10am - 4:30pm","Notes":null}},{"type":"Feature","geometry":{"type":"Point","coordinates":[-97.65221,30.44886]},"properties":{"Type":"Early Voting Location","Name":"County Tax Office, Pflugerville","Street":"15822 Foothill Farms Loop","City":"Pflugerville","State":"TX","Zip":"78660","Formatted":"County Tax Office, Pflugerville\n15822 Foothill Farms Loop\nPflugerville, TX 78660","Schedule":"Mon, Oct 21 - Sat, Oct 26: 7am - 7pm\nSun, Oct 27: noon - 6pm\nMon, Oct 28 - Fri, Nov 1: 7am - 7pm","Notes":null}},{"type":"Feature","geometry":{"type":"Point","coordinates":[-97.706995,30.229915]},"properties":{"Type":"Early Voting Location","Name":"Dan Ruiz Branch Public Library","Street":"1600 Grove Boulevard","City":"Austin","State":"TX","Zip":"78741","Formatted":"Dan Ruiz Branch Public Library\n1600 Grove Boulevard\nAustin, TX 78741","Schedule":"Mon, Oct 21 - Thu, Oct 24: 10am - 7pm\nFri, Oct 25: closed\nSat, Oct 26: 10am - 4:30pm\nSun, Oct 27: 2pm - 5:30pm\nMon, Oct 28 - Thu, Oct 31: 10am - 7pm\nFri, Nov 1: closed","Notes":null}},{"type":"Feature","geometry":{"type":"Point","coordinates":[-97.717745,30.296147]},"properties":{"Type":"Early Voting Location","Name":"Fiesta Mart Central","Street":"3909 North IH 35","City":"Austin","State":"TX","Zip":"78722","Formatted":"Fiesta Mart Central\n3909 North IH 35\nAustin, TX 78722","Schedule":"Mon, Oct 21 - Sat, Oct 26: 7am - 7pm\nSun, Oct 27: noon - 6pm\nMon, Oct 28 - Fri, Nov 1: 7am - 7pm","Notes":null}},{"type":"Feature","geometry":{"type":"Point","coordinates":[-97.764437,30.200482]},"properties":{"Type":"Early Voting Location","Name":"Fiesta Mart Stassney","Street":"5510 South IH 35","City":"Austin","State":"TX","Zip":"78745","Formatted":"Fiesta Mart Stassney\n5510 South IH 35\nAustin, TX 78745","Schedule":"Mon, Oct 21 - Sat, Oct 26: 7am - 7pm\nSun, Oct 27: noon - 6pm\nMon, Oct 28 - Fri, Nov 1: 7am - 7pm","Notes":null}},{"type":"Feature","geometry":{"type":"Point","coordinates":[-97.68208,30.35258]},"properties":{"Type":"Early Voting Location","Name":"Gus Garcia Recreation Center","Street":"1201 East Rundberg Lane","City":"Austin","State":"TX","Zip":"78753","Formatted":"Gus Garcia Recreation Center\n1201 East Rundberg Lane\nAustin, TX 78753","Schedule":"Mon, Oct 21 - Thu, Oct 24: 9am - 7pm\nFri, Oct 25: 9am - 6pm\nSat, Oct 26: 9am - 4pm\nSun, Oct 27: closed\nMon, Oct 28 - Thu, Oct 31: 9am - 7pm\nFri, Nov 1: 9am - 6pm","Notes":null}},{"type":"Feature","geometry":{"type":"Point","coordinates":[-97.755452,30.239642]},"properties":{"Type":"Early Voting Location","Name":"HEB South Congress","Street":"2400 South Congress Avenue","City":"Austin","State":"TX","Zip":"78704","Formatted":"HEB South Congress\n2400 South Congress Avenue\nAustin, TX 78704","Schedule":"Mon, Oct 21 - Sat, Oct 26: 7am - 7pm\nSun, Oct 27: noon - 6pm\nMon, Oct 28 - Fri, Nov 1: 7am - 7pm","Notes":null}},{"type":"Feature","geometry":{"type":"Point","coordinates":[-97.7676,30.2982]},"properties":{"Type":"Early Voting Location","Name":"Howson Branch Library","Street":"2500 Exposition Boulevard","City":"Austin","State":"TX","Zip":"78703","Formatted":"Howson Branch Library\n2500 Exposition Boulevard\nAustin, TX 78703","Schedule":"Mon, Oct 21 - Wed, Oct 23: 10am - 7pm\nThu, Oct 24: closed\nFri, Oct 25: 10am - 5:30pm\nSat, Oct 26: 10am - 4:30pm\nSun, Oct 27: closed\nMon, Oct 28 - Wed, Oct 30: 10am - 7pm\nThu, Oct 31: closed\nFri, Nov 1: 10am - 7pm","Notes":null}},{"type":"Feature","geometry":{"type":"Point","coordinates":[-97.711565,30.261746]},"properties":{"Type":"Early Voting Location","Name":"Parque Zaragoza Recreation Center","Street":"2608 Gonzales Street","City":"Austin","State":"TX","Zip":"78702","Formatted":"Parque Zaragoza Recreation Center\n2608 Gonzales Street\nAustin, TX 78702","Schedule":"Mon, Oct 21 - Thu, Oct 24: 11am - 7pm\nFri, Oct 25: 11am - 6pm\nSat, Oct 26: 11am - 5pm\nSun, Oct 27: closed\nMon, Oct 28 - Thu, Oct 31: 11am - 7pm\nFri, Nov 1: 11am - 6pm","Notes":null}},{"type":"Feature","geometry":{"type":"Point","coordinates":[-97.790117,30.229418]},"properties":{"Type":"Early Voting Location","Name":"Randalls Ben White and Manchaca","Street":"2025 West Ben White Boulevard","City":"Austin","State":"TX","Zip":"78704","Formatted":"Randalls Ben White and Manchaca\n2025 West Ben White Boulevard\nAustin, TX 78704","Schedule":"Mon, Oct 21 - Sat, Oct 26: 7am - 7pm\nSun, Oct 27: noon - 6pm\nMon, Oct 28 - Fri, Nov 1: 7am - 7pm","Notes":null}},{"type":"Feature","geometry":{"type":"Point","coordinates":[-97.847993,30.184057]},"properties":{"Type":"Early Voting Location","Name":"Randalls Brodie and Slaughter","Street":"9911 Brodie Lane","City":"Austin","State":"TX","Zip":"78748","Formatted":"Randalls Brodie and Slaughter\n9911 Brodie Lane\nAustin, TX 78748","Schedule":"Mon, Oct 21 - Sat, Oct 26: 7am - 7pm\nSun, Oct 27: noon - 6pm\nMon, Oct 28 - Fri, Nov 1: 7am - 7pm","Notes":null}},{"type":"Feature","geometry":{"type":"Point","coordinates":[-97.798812,30.275376]},"properties":{"Type":"Early Voting Location","Name":"Randalls Flagship at West Lake Hills","Street":"3300 Bee Cave Road","City":"West Lake Hills","State":"TX","Zip":"78746","Formatted":"Randalls Flagship at West Lake Hills\n3300 Bee Cave Road\nWest Lake Hills, TX 78746","Schedule":"Mon, Oct 21 - Sat, Oct 26: 7am - 7pm\nSun, Oct 27: noon - 6pm\nMon, Oct 28 - Fri, Nov 1: 7am - 7pm","Notes":null}},{"type":"Feature","geometry":{"type":"Point","coordinates":[-97.966429,30.341584]},"properties":{"Type":"Early Voting Location","Name":"Randalls Lakeway","Street":"2301 RR 620 South","City":"Lakeway","State":"TX","Zip":"78734","Formatted":"Randalls Lakeway\n2301 RR 620 South\nLakeway, TX 78734","Schedule":"Mon, Oct 21 - Sat, Oct 26: 7am - 7pm\nSun, Oct 27: noon - 6pm\nMon, Oct 28 - Fri, Nov 1: 7am - 7pm","Notes":null}},{"type":"Feature","geometry":{"type":"Point","coordinates":[-97.747132,30.401991]},"properties":{"Type":"Early Voting Location","Name":"Randalls Research and Braker","Street":"10900-D Research Boulevard","City":"Austin","State":"TX","Zip":"78759","Formatted":"Randalls Research and Braker\n10900-D Research Boulevard\nAustin, TX 78759","Schedule":"Mon, Oct 21 - Sat, Oct 26: 7am - 7pm\nSun, Oct 27: noon - 6pm\nMon, Oct 28 - Fri, Nov 1: 7am - 7pm","Notes":null}},{"type":"Feature","geometry":{"type":"Point","coordinates":[-97.836277,30.22278]},"properties":{"Type":"Early Voting Location","Name":"Randalls South Mopac and William Cannon","Street":"6600 South Mopac Expressway","City":"Austin","State":"TX","Zip":"78749","Formatted":"Randalls South Mopac and William Cannon\n6600 South Mopac Expressway\nAustin, TX 78749","Schedule":"Mon, Oct 21 - Sat, Oct 26: 7am - 7pm\nSun, Oct 27: noon - 6pm\nMon, Oct 28 - Fri, Nov 1: 7am - 7pm","Notes":null}},{"type":"Feature","geometry":{"type":"Point","coordinates":[-97.884042,30.389128]},"properties":{"Type":"Early Voting Location","Name":"Randalls Steiner Ranch","Street":"5145 RM 620 North","City":"Austin","State":"TX","Zip":"78732","Formatted":"Randalls Steiner Ranch\n5145 RM 620 North\nAustin, TX 78732","Schedule":"Mon, Oct 21 - Sat, Oct 26: 7am - 7pm\nSun, Oct 27: noon - 6pm\nMon, Oct 28 - Fri, Nov 1: 7am - 7pm","Notes":null}},{"type":"Feature","geometry":{"type":"Point","coordinates":[-97.713196,30.316062]},"properties":{"Type":"Early Voting Location","Name":"Travis County Airport Blvd Offices","Street":"5501 Airport Boulevard","City":"Austin","State":"TX","Zip":"78751","Formatted":"Travis County Airport Blvd Offices\n5501 Airport Boulevard\nAustin, TX 78751","Schedule":"Mon, Oct 21 - Sat, Oct 26: 7am - 7pm\nSun, Oct 27: noon - 6pm\nMon, Oct 28 - Fri, Nov 1: 7am - 7pm","Notes":null}},{"type":"Feature","geometry":{"type":"Point","coordinates":[-97.74033,30.286086]},"properties":{"Type":"Early Voting Location","Name":"University of Texas, Flawn Academic Center","Street":"2400 Inner Campus Drive (On the West Mall)","City":"Austin","State":"TX","Zip":"78712","Formatted":"University of Texas, Flawn Academic Center\n2400 Inner Campus Drive (On the West Mall)\nAustin, TX 78712","Schedule":"Mon, Oct 21 - Sat, Oct 26: 7am - 7pm\nSun, Oct 27: noon - 6pm\nMon, Oct 28 - Fri, Nov 1: 7am - 7pm","Notes":null}},{"type":"Feature","geometry":{"type":"Point","coordinates":[-97.573453,30.344649]},"properties":{"Type":"Mobile Early Voting Location","Name":"Manor ISD Administration Building","Street":"10335 Hwy 290 East","City":"Manor","State":"TX","Zip":"78653","Formatted":"Manor ISD Administration Building\n10335 Hwy 290 East\nManor, TX 78653","Schedule":"Mon, Oct 21: 9am - 6pm","Notes":null}},{"type":"Feature","geometry":{"type":"Point","coordinates":[-97.73859,30.27514]},"properties":{"Type":"Mobile Early Voting Location","Name":"Sam Houston Building","Street":"201 East 14th Street","City":"Austin","State":"TX","Zip":"78701","Formatted":"Sam Houston Building\n201 East 14th Street\nAustin, TX 78701","Schedule":"Mon, Oct 21: 8am - noon","Notes":null}},{"type":"Feature","geometry":{"type":"Point","coordinates":[-97.70015,30.36491]},"properties":{"Type":"Mobile Early Voting Location","Name":"YMCA North Austin Branch","Street":"1000 West Rundberg Lane","City":"Austin","State":"TX","Zip":"78758","Formatted":"YMCA North Austin Branch\n1000 West Rundberg Lane\nAustin, TX 78758","Schedule":"Mon, Oct 21: 9am - 1pm","Notes":null}},{"type":"Feature","geometry":{"type":"Point","coordinates":[-97.73823,30.27906]},"properties":{"Type":"Mobile Early Voting Location","Name":"Travis Building","Street":"1701 North Congress Avenue","City":"Austin","State":"TX","Zip":"78701","Formatted":"Travis Building\n1701 North Congress Avenue\nAustin, TX 78701","Schedule":"Mon, Oct 21: 2pm - 5pm","Notes":null}},{"type":"Feature","geometry":{"type":"Point","coordinates":[-97.70448,30.40319]},"properties":{"Type":"Mobile Early Voting Location","Name":"ACC Northridge Campus","Street":"11928 Stonehollow Drive","City":"Austin","State":"TX","Zip":"78758","Formatted":"ACC Northridge Campus\n11928 Stonehollow Drive\nAustin, TX 78758","Schedule":"Mon, Oct 21: 3pm - 7pm","Notes":null}},{"type":"Feature","geometry":{"type":"Point","coordinates":[-97.745211,30.270243]},"properties":{"Type":"Mobile Early Voting Location","Name":"Travis County Commissioners Court","Street":"700 Lavaca Street","City":"Austin","State":"TX","Zip":"78701","Formatted":"Travis County Commissioners Court\n700 Lavaca Street\nAustin, TX 78701","Schedule":"Tue, Oct 22: 8am - 5pm","Notes":null}},{"type":"Feature","geometry":{"type":"Point","coordinates":[-97.836748,30.420193]},"properties":{"Type":"Mobile Early Voting Location","Name":"Concordia University","Street":"11400 Concordia University Drive (Main Lobby-Bldg A)","City":"Austin","State":"TX","Zip":"78726","Formatted":"Concordia University\n11400 Concordia University Drive (Main Lobby-Bldg A)\nAustin, TX 78726","Schedule":"Tue, Oct 22: 9am - 6pm","Notes":null}},{"type":"Feature","geometry":{"type":"Point","coordinates":[-97.621551,30.430766]},"properties":{"Type":"Mobile Early Voting Location","Name":"Cambridge Villas Senior Apartments","Street":"15711 Dessau Road","City":"Pflugerville","State":"TX","Zip":"78660","Formatted":"Cambridge Villas Senior Apartments\n15711 Dessau Road\nPflugerville, TX 78660","Schedule":"Tue, Oct 22: 8am - 10am","Notes":null}},{"type":"Feature","geometry":{"type":"Point","coordinates":[-97.641427,30.443984]},"properties":{"Type":"Mobile Early Voting Location","Name":"Heatherwilde Assisted Living","Street":"401 South Heatherwilde Boulevard","City":"Pflugerville","State":"TX","Zip":"78660","Formatted":"Heatherwilde Assisted Living\n401 South Heatherwilde Boulevard\nPflugerville, TX 78660","Schedule":"Tue, Oct 22: noon - 2pm","Notes":null}},{"type":"Feature","geometry":{"type":"Point","coordinates":[-97.694979,30.444197]},"properties":{"Type":"Mobile Early Voting Location","Name":"Conservatory at Wells Branch","Street":"14320 Tandem Boulevard","City":"Austin","State":"TX","Zip":"78728","Formatted":"Conservatory at Wells Branch\n14320 Tandem Boulevard\nAustin, TX 78728","Schedule":"Tue, Oct 22: 4pm - 6pm","Notes":null}},{"type":"Feature","geometry":{"type":"Point","coordinates":[-97.613418,30.176036]},"properties":{"Type":"Mobile Early Voting Location","Name":"Del Valle ISD Administration Building","Street":"5301 Ross Road","City":"Del Valle","State":"TX","Zip":"78617","Formatted":"Del Valle ISD Administration Building\n5301 Ross Road\nDel Valle, TX 78617","Schedule":"Wed, Oct 23: 9am - 6pm","Notes":null}},{"type":"Feature","geometry":{"type":"Point","coordinates":[-97.672078,30.284326]},"properties":{"Type":"Mobile Early Voting Location","Name":"Heritage Pointe","Street":"1950 Webberville Road","City":"Austin","State":"TX","Zip":"78721","Formatted":"Heritage Pointe\n1950 Webberville Road\nAustin, TX 78721","Schedule":"Wed, Oct 23: 8am - 10am","Notes":null}},{"type":"Feature","geometry":{"type":"Point","coordinates":[-97.78259,30.429961]},"properties":{"Type":"Mobile Early Voting Location","Name":"Heartland Health Care Center","Street":"11406 Rustic Rock Drive","City":"Austin","State":"TX","Zip":"78750","Formatted":"Heartland Health Care Center\n11406 Rustic Rock Drive\nAustin, TX 78750","Schedule":"Wed, Oct 23: noon - 2pm","Notes":null}},{"type":"Feature","geometry":{"type":"Point","coordinates":[-97.853186,30.482612]},"properties":{"Type":"Mobile Early Voting Location","Name":"Deer Creek Elementary School","Street":"2420 Zeppelin Drive","City":"Cedar Park","State":"TX","Zip":"78613","Formatted":"Deer Creek Elementary School\n2420 Zeppelin Drive\nCedar Park, TX 78613","Schedule":"Wed, Oct 23: 4:30pm - 7pm","Notes":null}},{"type":"Feature","geometry":{"type":"Point","coordinates":[-97.73936,30.27938]},"properties":{"Type":"Mobile Early Voting Location","Name":"Stephen F. Austin Building","Street":"1700 North Congress Avenue","City":"Austin","State":"TX","Zip":"78701","Formatted":"Stephen F. Austin Building\n1700 North Congress Avenue\nAustin, TX 78701","Schedule":"Wed, Oct 23: 8am - noon","Notes":null}},{"type":"Feature","geometry":{"type":"Point","coordinates":[-97.73592,30.278517]},"properties":{"Type":"Mobile Early Voting Location","Name":"Central Services Building","Street":"1711 San Jacinto Boulevard","City":"Austin","State":"TX","Zip":"78701","Formatted":"Central Services Building\n1711 San Jacinto Boulevard\nAustin, TX 78701","Schedule":"Wed, Oct 23: 2pm - 5pm","Notes":null}},{"type":"Feature","geometry":{"type":"Point","coordinates":[-97.738227,30.187712]},"properties":{"Type":"Mobile Early Voting Location","Name":"Dove Springs Recreation Center","Street":"5801 Ainez Drive","City":"Austin","State":"TX","Zip":"78744","Formatted":"Dove Springs Recreation Center\n5801 Ainez Drive\nAustin, TX 78744","Schedule":"Thu, Oct 24: 9am - noon","Notes":null}},{"type":"Feature","geometry":{"type":"Point","coordinates":[-97.70696,30.26834]},"properties":{"Type":"Mobile Early Voting Location","Name":"ACC Eastview Campus","Street":"3401 Webberville Road","City":"Austin","State":"TX","Zip":"78702","Formatted":"ACC Eastview Campus\n3401 Webberville Road\nAustin, TX 78702","Schedule":"Thu, Oct 24: 2pm - 7pm","Notes":null}},{"type":"Feature","geometry":{"type":"Point","coordinates":[-97.76359,30.254453]},"properties":{"Type":"Mobile Early Voting Location","Name":"Mary Lee Foundation Community Center","Street":"1339 Lamar Square Drive","City":"Austin","State":"TX","Zip":"78704","Formatted":"Mary Lee Foundation Community Center\n1339 Lamar Square Drive\nAustin, TX 78704","Schedule":"Thu, Oct 24: 8am - noon","Notes":null}},{"type":"Feature","geometry":{"type":"Point","coordinates":[-97.75135,30.24085]},"properties":{"Type":"Mobile Early Voting Location","Name":"Services for the Deaf & Hard of Hearing","Street":"2201 Post Road, Suite 100","City":"Austin","State":"TX","Zip":"78704","Formatted":"Services for the Deaf & Hard of Hearing\n2201 Post Road, Suite 100\nAustin, TX 78704","Schedule":"Thu, Oct 24: 2pm - 5pm","Notes":null}},{"type":"Feature","geometry":{"type":"Point","coordinates":[-97.976283,30.347607]},"properties":{"Type":"Mobile Early Voting Location","Name":"Summit at Lakeway","Street":"1915 Lohmans Crossing Road","City":"Lakeway","State":"TX","Zip":"78734","Formatted":"Summit at Lakeway\n1915 Lohmans Crossing Road\nLakeway, TX 78734","Schedule":"Thu, Oct 24: 8am - 10am","Notes":null}},{"type":"Feature","geometry":{"type":"Point","coordinates":[-97.873383,30.323827]},"properties":{"Type":"Mobile Early Voting Location","Name":"Ce-Bar Fire Department","Street":"353 South Commons Ford Road","City":"Austin","State":"TX","Zip":"78733","Formatted":"Ce-Bar Fire Department\n353 South Commons Ford Road\nAustin, TX 78733","Schedule":"Thu, Oct 24: noon - 6pm","Notes":null}},{"type":"Feature","geometry":{"type":"Point","coordinates":[-97.752019,30.258669]},"properties":{"Type":"Mobile Early Voting Location","Name":"Town Lake Center","Street":"721 Barton Springs Road","City":"Austin","State":"TX","Zip":"78704","Formatted":"Town Lake Center\n721 Barton Springs Road\nAustin, TX 78704","Schedule":"Fri, Oct 25: 8am - noon","Notes":null}},{"type":"Feature","geometry":{"type":"Point","coordinates":[-97.730668,30.316426]},"properties":{"Type":"Mobile Early Voting Location","Name":"Winters Building","Street":"701 West 51st Street","City":"Austin","State":"TX","Zip":"78751","Formatted":"Winters Building\n701 West 51st Street\nAustin, TX 78751","Schedule":"Fri, Oct 25: 2pm - 5pm","Notes":null}},{"type":"Feature","geometry":{"type":"Point","coordinates":[-97.696717,30.324508]},"properties":{"Type":"Mobile Early Voting Location","Name":"Parsons House","Street":"1130 Camino La Costa","City":"Austin","State":"TX","Zip":"78752","Formatted":"Parsons House\n1130 Camino La Costa\nAustin, TX 78752","Schedule":"Fri, Oct 25: 8am - 10am","Notes":null}},{"type":"Feature","geometry":{"type":"Point","coordinates":[-97.684228,30.336472]},"properties":{"Type":"Mobile Early Voting Location","Name":"Austin Area Urban League","Street":"8011 Cameron Road Suite # 100","City":"Austin","State":"TX","Zip":"78754","Formatted":"Austin Area Urban League\n8011 Cameron Road Suite # 100\nAustin, TX 78754","Schedule":"Fri, Oct 25: noon - 5pm","Notes":null}},{"type":"Feature","geometry":{"type":"Point","coordinates":[-97.987372,30.453007]},"properties":{"Type":"Mobile Early Voting Location","Name":"Lago Vista City Hall","Street":"5803 Thunderbird Street","City":"Lago Vista","State":"TX","Zip":"78645","Formatted":"Lago Vista City Hall\n5803 Thunderbird Street\nLago Vista, TX 78645","Schedule":"Fri, Oct 25: 9am - 6pm","Notes":null}},{"type":"Feature","geometry":{"type":"Point","coordinates":[-97.741097,30.26146]},"properties":{"Type":"Mobile Early Voting Location","Name":"Lakeside Senior Center","Street":"85 Trinity Street","City":"Austin","State":"TX","Zip":"78701","Formatted":"Lakeside Senior Center\n85 Trinity Street\nAustin, TX 78701","Schedule":"Sat, Oct 26: 8am - 10am","Notes":null}},{"type":"Feature","geometry":{"type":"Point","coordinates":[-97.720878,30.258039]},"properties":{"Type":"Mobile Early Voting Location","Name":"Cantu/Pan Am Recreation Center","Street":"2100 East 3rd Street","City":"Austin","State":"TX","Zip":"78702","Formatted":"Cantu/Pan Am Recreation Center\n2100 East 3rd Street\nAustin, TX 78702","Schedule":"Sat, Oct 26: noon - 2pm","Notes":null}},{"type":"Feature","geometry":{"type":"Point","coordinates":[-97.7338,30.25304]},"properties":{"Type":"Mobile Early Voting Location","Name":"RBJ Residential Tower","Street":"21 Waller Street","City":"Austin","State":"TX","Zip":"78702","Formatted":"RBJ Residential Tower\n21 Waller Street\nAustin, TX 78702","Schedule":"Sat, Oct 26: 4pm - 6pm","Notes":null}},{"type":"Feature","geometry":{"type":"Point","coordinates":[-97.923358,30.492801]},"properties":{"Type":"Mobile Early Voting Location","Name":"Community Center at Jonestown","Street":"18649 FM 1431, Suite 6A","City":"Jonestown","State":"TX","Zip":"78645","Formatted":"Community Center at Jonestown\n18649 FM 1431, Suite 6A\nJonestown, TX 78645","Schedule":"Sat, Oct 26: 9am - 6pm","Notes":null}},{"type":"Feature","geometry":{"type":"Point","coordinates":[-98.05713,30.40658]},"properties":{"Type":"Mobile Early Voting Location","Name":"Briarcliff P.O.A. Community Center","Street":"22801 Braircliff Drive","City":"Briarcliff","State":"TX","Zip":"78669","Formatted":"Briarcliff P.O.A. Community Center\n22801 Braircliff Drive\nBriarcliff, TX 78669","Schedule":"Sat, Oct 26: 9am - 6pm","Notes":null}},{"type":"Feature","geometry":{"type":"Point","coordinates":[-97.787633,30.26775]},"properties":{"Type":"Mobile Early Voting Location","Name":"Summit at West Lake Hills","Street":"1034 Liberty Park Drive","City":"Austin","State":"TX","Zip":"78746","Formatted":"Summit at West Lake Hills\n1034 Liberty Park Drive\nAustin, TX 78746","Schedule":"Sun, Oct 27: noon - 2pm","Notes":null}},{"type":"Feature","geometry":{"type":"Point","coordinates":[-97.83352,30.28377]},"properties":{"Type":"Mobile Early Voting Location","Name":"Lost Creek MUD Office","Street":"1305 Quaker Ridge Drive","City":"Austin","State":"TX","Zip":"78746","Formatted":"Lost Creek MUD Office\n1305 Quaker Ridge Drive\nAustin, TX 78746","Schedule":"Sun, Oct 27: 4pm - 6pm","Notes":null}},{"type":"Feature","geometry":{"type":"Point","coordinates":[-97.803249,30.234145]},"properties":{"Type":"Mobile Early Voting Location","Name":"Continental Retirement Community","Street":"4604 South Lamar Boulevard","City":"Austin","State":"TX","Zip":"78745","Formatted":"Continental Retirement Community\n4604 South Lamar Boulevard\nAustin, TX 78745","Schedule":"Sun, Oct 27: noon - 2pm","Notes":null}},{"type":"Feature","geometry":{"type":"Point","coordinates":[-97.801516,30.223985]},"properties":{"Type":"Mobile Early Voting Location","Name":"Englewood Estates","Street":"2603 Jones Road","City":"Austin","State":"TX","Zip":"78745","Formatted":"Englewood Estates\n2603 Jones Road\nAustin, TX 78745","Schedule":"Sun, Oct 27: 4pm - 6pm","Notes":null}},{"type":"Feature","geometry":{"type":"Point","coordinates":[-97.90388,30.43569]},"properties":{"Type":"Mobile Early Voting Location","Name":"Volente Fire Department","Street":"15406 FM 2769","City":"Volente","State":"TX","Zip":"78641","Formatted":"Volente Fire Department\n15406 FM 2769\nVolente, TX 78641","Schedule":"Sun, Oct 27: noon - 2pm","Notes":null}},{"type":"Feature","geometry":{"type":"Point","coordinates":[-97.909979,30.350579]},"properties":{"Type":"Mobile Early Voting Location","Name":"Longhorn Village","Street":"12501 Longhorn  Parkway","City":"Austin","State":"TX","Zip":"78732","Formatted":"Longhorn Village\n12501 Longhorn  Parkway\nAustin, TX 78732","Schedule":"Sun, Oct 27: 4pm - 6pm","Notes":null}},{"type":"Feature","geometry":{"type":"Point","coordinates":[-97.883302,30.231716]},"properties":{"Type":"Mobile Early Voting Location","Name":"ACC Pinnacle Campus","Street":"7748 Highway 290 West","City":"Austin","State":"TX","Zip":"78736","Formatted":"ACC Pinnacle Campus\n7748 Highway 290 West\nAustin, TX 78736","Schedule":"Mon, Oct 28: 8am - noon","Notes":null}},{"type":"Feature","geometry":{"type":"Point","coordinates":[-97.756401,30.229334]},"properties":{"Type":"Mobile Early Voting Location","Name":"St. Edwards University","Street":"3001 South Congress Avenue","City":"Austin","State":"TX","Zip":"78704","Formatted":"St. Edwards University\n3001 South Congress Avenue\nAustin, TX 78704","Schedule":"Mon, Oct 28: 2pm - 6pm","Notes":null}},{"type":"Feature","geometry":{"type":"Point","coordinates":[-97.70933,30.26486]},"properties":{"Type":"Mobile Early Voting Location","Name":"Lyons Gardens","Street":"2720 Lyons Road","City":"Austin","State":"TX","Zip":"78702","Formatted":"Lyons Gardens\n2720 Lyons Road\nAustin, TX 78702","Schedule":"Mon, Oct 28: 11am - 1pm","Notes":null}},{"type":"Feature","geometry":{"type":"Point","coordinates":[-97.682635,30.261064]},"properties":{"Type":"Mobile Early Voting Location","Name":"Southwest Key Program","Street":"6002 Jain Lane","City":"Austin","State":"TX","Zip":"78721","Formatted":"Southwest Key Program\n6002 Jain Lane\nAustin, TX 78721","Schedule":"Mon, Oct 28: 3pm - 7pm","Notes":null}},{"type":"Feature","geometry":{"type":"Point","coordinates":[-97.88357,30.534916]},"properties":{"Type":"Mobile Early Voting Location","Name":"Crystal Falls Golf Course","Street":"3400 Crystal Falls Parkway","City":"Leander","State":"TX","Zip":"78646","Formatted":"Crystal Falls Golf Course\n3400 Crystal Falls Parkway\nLeander, TX 78646","Schedule":"Mon, Oct 28: 9am - 6pm","Notes":null}},{"type":"Feature","geometry":{"type":"Point","coordinates":[-97.796345,30.215335]},"properties":{"Type":"Mobile Early Voting Location","Name":"ACC South Austin Campus","Street":"1820 West Stassney Lane","City":"Austin","State":"TX","Zip":"78745","Formatted":"ACC South Austin Campus\n1820 West Stassney Lane\nAustin, TX 78745","Schedule":"Tue, Oct 29: 8am - noon","Notes":null}},{"type":"Feature","geometry":{"type":"Point","coordinates":[-97.74195,30.187583]},"properties":{"Type":"Mobile Early Voting Location","Name":"Southeast Branch Public Library","Street":"5803 Nuckols Crossing Road","City":"Austin","State":"TX","Zip":"78744","Formatted":"Southeast Branch Public Library\n5803 Nuckols Crossing Road\nAustin, TX 78744","Schedule":"Tue, Oct 29: 2pm - 7pm","Notes":null}},{"type":"Feature","geometry":{"type":"Point","coordinates":[-97.642107,30.198738]},"properties":{"Type":"Mobile Early Voting Location","Name":"South Rural Community Center","Street":"3518 South FM 973","City":"Del Valle","State":"TX","Zip":"78617","Formatted":"South Rural Community Center\n3518 South FM 973\nDel Valle, TX 78617","Schedule":"Tue, Oct 29: 8am - noon","Notes":null}},{"type":"Feature","geometry":{"type":"Point","coordinates":[-97.893596,30.251449]},"properties":{"Type":"Mobile Early Voting Location","Name":"West Rural Community Center","Street":"8656 Highway 71 West #A","City":"Austin","State":"TX","Zip":"78735","Formatted":"West Rural Community Center\n8656 Highway 71 West #A\nAustin, TX 78735","Schedule":"Tue, Oct 29: 2pm - 5pm","Notes":null}},{"type":"Feature","geometry":{"type":"Point","coordinates":[-97.711979,30.282825]},"properties":{"Type":"Mobile Early Voting Location","Name":"Heritage Park Center","Street":"2806 Real Street","City":"Austin","State":"TX","Zip":"78722","Formatted":"Heritage Park Center\n2806 Real Street\nAustin, TX 78722","Schedule":"Tue, Oct 29: 8am - 10am","Notes":null}},{"type":"Feature","geometry":{"type":"Point","coordinates":[-97.721688,30.264701]},"properties":{"Type":"Mobile Early Voting Location","Name":"Huston-Tillotson University","Street":"900 Chicon Street","City":"Austin","State":"TX","Zip":"78702","Formatted":"Huston-Tillotson University\n900 Chicon Street\nAustin, TX 78702","Schedule":"Tue, Oct 29: noon - 6pm","Notes":null}},{"type":"Feature","geometry":{"type":"Point","coordinates":[-97.74517,30.27325]},"properties":{"Type":"Mobile Early Voting Location","Name":"Travis County Courthouse","Street":"1000 Guadalupe Street, 1st Floor","City":"Austin","State":"TX","Zip":"78701","Formatted":"Travis County Courthouse\n1000 Guadalupe Street, 1st Floor\nAustin, TX 78701","Schedule":"Wed, Oct 30: 8am - 5pm\nThu, Oct 31: 8am - 5pm\nFri, Nov 1: 8am - 5pm","Notes":null}},{"type":"Feature","geometry":{"type":"Point","coordinates":[-97.747271,30.26484]},"properties":{"Type":"Mobile Early Voting Location","Name":"Austin City Hall","Street":"301 West 2nd Street (Media Room)","City":"Austin","State":"TX","Zip":"78701","Formatted":"Austin City Hall\n301 West 2nd Street (Media Room)\nAustin, TX 78701","Schedule":"Wed, Oct 30: 8am - 5pm\nThu, Oct 31: 8am - 5pm\nFri, Nov 1: 8am - 5pm","Notes":null}},{"type":"Feature","geometry":{"type":"Point","coordinates":[-97.52112,30.26586]},"properties":{"Type":"Mobile Early Voting Location","Name":"Travis County Sheriff's Office (East/Este)","Street":"7811 Burleson Manor Road","City":"Manor","State":"TX","Zip":"78767","Formatted":"Travis County Sheriff's Office (East/Este)\n7811 Burleson Manor Road\nManor, TX 78767","Schedule":"Wed, Oct 30: 9am - 6pm","Notes":null}},{"type":"Feature","geometry":{"type":"Point","coordinates":[-97.939939,30.308171]},"properties":{"Type":"Mobile Early Voting Location","Name":"Bee Cave City Hall","Street":"4000 Galleria Parkway","City":"Bee Cave","State":"TX","Zip":"78738","Formatted":"Bee Cave City Hall\n4000 Galleria Parkway\nBee Cave, TX 78738","Schedule":"Thu, Oct 31: 9am - 6pm","Notes":null}},{"type":"Feature","geometry":{"type":"Point","coordinates":[-97.86066,30.21802]},"properties":{"Type":"Mobile Early Voting Location","Name":"Emeritus at Beckett Meadows","Street":"7709 Beckett Road","City":"Austin","State":"TX","Zip":"78749","Formatted":"Emeritus at Beckett Meadows\n7709 Beckett Road\nAustin, TX 78749","Schedule":"Fri, Nov 1: 9am - 11am","Notes":null}},{"type":"Feature","geometry":{"type":"Point","coordinates":[-97.758826,30.372289]},"properties":{"Type":"Mobile Early Voting Location","Name":"Emeritus at Spicewood Springs","Street":"4401 Spicewood Springs Road","City":"Austin","State":"TX","Zip":"78759","Formatted":"Emeritus at Spicewood Springs\n4401 Spicewood Springs Road\nAustin, TX 78759","Schedule":"Fri, Nov 1: 1pm - 3pm","Notes":null}},{"type":"Feature","geometry":{"type":"Point","coordinates":[-97.75557,30.316239]},"properties":{"Type":"Mobile Early Voting Location","Name":"Westminster Manor","Street":"4100 Jackson Avenue","City":"Austin","State":"TX","Zip":"78731","Formatted":"Westminster Manor\n4100 Jackson Avenue\nAustin, TX 78731","Schedule":"Fri, Nov 1: 5pm - 7pm","Notes":null}}]
